[
  {
    "id": "1",
    "clave_entidad": "1",
    "nombre_entidad": "Aguascalientes",
    "clave_municipio": "0",
    "nombre_municipio": "todo el estado",
    "clave_inegi": "01000",
    "nombre_inegi": "",
    "minx": "-102.858",
    "miny": "21.6225",
    "maxx": "-101.867",
    "maxy": "22.4456",
    "lat": "22.034027099609375",
    "lng": "-102.36222457885742"
  },
  {
    "id": "64",
    "clave_entidad": "1",
    "nombre_entidad": "Aguascalientes",
    "clave_municipio": "1",
    "nombre_municipio": "Aguascalientes",
    "clave_inegi": "01001",
    "nombre_inegi": "",
    "minx": "-102.531",
    "miny": "21.6225",
    "maxx": "-102.071",
    "maxy": "22.0572",
    "lat": "21.83986091613769",
    "lng": "-102.30125045776367"
  },
  {
    "id": "65",
    "clave_entidad": "1",
    "nombre_entidad": "Aguascalientes",
    "clave_municipio": "2",
    "nombre_municipio": "Asientos",
    "clave_inegi": "01002",
    "nombre_inegi": "",
    "minx": "-102.207",
    "miny": "21.9889",
    "maxx": "-101.867",
    "maxy": "22.2961",
    "lat": "22.14250087738037",
    "lng": "-102.03680801391602"
  },
  {
    "id": "66",
    "clave_entidad": "1",
    "nombre_entidad": "Aguascalientes",
    "clave_municipio": "3",
    "nombre_municipio": "Calvillo",
    "clave_inegi": "01003",
    "nombre_inegi": "",
    "minx": "-102.858",
    "miny": "21.7328",
    "maxx": "-102.558",
    "maxy": "22.1053",
    "lat": "21.919028282165527",
    "lng": "-102.70791625976561"
  },
  {
    "id": "67",
    "clave_entidad": "1",
    "nombre_entidad": "Aguascalientes",
    "clave_municipio": "4",
    "nombre_municipio": "Cosio",
    "clave_inegi": "01004",
    "nombre_inegi": "",
    "minx": "-102.324",
    "miny": "22.3008",
    "maxx": "-102.244",
    "maxy": "22.4456",
    "lat": "22.373193740844727",
    "lng": "-102.28402709960939"
  },
  {
    "id": "68",
    "clave_entidad": "1",
    "nombre_entidad": "Aguascalientes",
    "clave_municipio": "5",
    "nombre_municipio": "Jesus Maria",
    "clave_inegi": "01005",
    "nombre_inegi": "",
    "minx": "-102.584",
    "miny": "21.8194",
    "maxx": "-102.27",
    "maxy": "22.0497",
    "lat": "21.934583663940426",
    "lng": "-102.42722320556639"
  },
  {
    "id": "69",
    "clave_entidad": "1",
    "nombre_entidad": "Aguascalientes",
    "clave_municipio": "6",
    "nombre_municipio": "Pabellon de Arteaga",
    "clave_inegi": "01006",
    "nombre_inegi": "",
    "minx": "-102.351",
    "miny": "22.0414",
    "maxx": "-102.198",
    "maxy": "22.1714",
    "lat": "22.106389045715332",
    "lng": "-102.27472305297852"
  },
  {
    "id": "70",
    "clave_entidad": "1",
    "nombre_entidad": "Aguascalientes",
    "clave_municipio": "7",
    "nombre_municipio": "Rincon de Romos",
    "clave_inegi": "01007",
    "nombre_inegi": "",
    "minx": "-102.432",
    "miny": "22.1256",
    "maxx": "-102.2",
    "maxy": "22.3742",
    "lat": "22.24986076354981",
    "lng": "-102.31583023071288"
  },
  {
    "id": "71",
    "clave_entidad": "1",
    "nombre_entidad": "Aguascalientes",
    "clave_municipio": "8",
    "nombre_municipio": "San Jose de Gracia",
    "clave_inegi": "01008",
    "nombre_inegi": "",
    "minx": "-102.681",
    "miny": "21.9939",
    "maxx": "-102.361",
    "maxy": "22.3181",
    "lat": "22.155972480773926",
    "lng": "-102.52055740356444"
  },
  {
    "id": "72",
    "clave_entidad": "1",
    "nombre_entidad": "Aguascalientes",
    "clave_municipio": "9",
    "nombre_municipio": "Tepezala",
    "clave_inegi": "01009",
    "nombre_inegi": "",
    "minx": "-102.277",
    "miny": "22.1611",
    "maxx": "-102.134",
    "maxy": "22.3306",
    "lat": "22.245833396911618",
    "lng": "-102.20569610595702"
  },
  {
    "id": "73",
    "clave_entidad": "1",
    "nombre_entidad": "Aguascalientes",
    "clave_municipio": "10",
    "nombre_municipio": "El Llano",
    "clave_inegi": "01010",
    "nombre_inegi": "",
    "minx": "-102.17",
    "miny": "21.7961",
    "maxx": "-101.918",
    "maxy": "22.0386",
    "lat": "21.917361259460453",
    "lng": "-102.04375076293945"
  },
  {
    "id": "74",
    "clave_entidad": "1",
    "nombre_entidad": "Aguascalientes",
    "clave_municipio": "11",
    "nombre_municipio": "San Francisco de los Romo",
    "clave_inegi": "01011",
    "nombre_inegi": "",
    "minx": "-102.305",
    "miny": "21.9594",
    "maxx": "-102.147",
    "maxy": "22.0872",
    "lat": "22.02333354949951",
    "lng": "-102.22583389282227"
  },
  {
    "id": "2",
    "clave_entidad": "2",
    "nombre_entidad": "Baja California",
    "clave_municipio": "0",
    "nombre_municipio": "todo el estado",
    "clave_inegi": "02000",
    "nombre_inegi": "",
    "minx": "-118.301",
    "miny": "28.0006",
    "maxx": "-112.773",
    "maxy": "32.7153",
    "lat": "30.357916831970215",
    "lng": "-115.53708267211915"
  },
  {
    "id": "75",
    "clave_entidad": "2",
    "nombre_entidad": "Baja California",
    "clave_municipio": "1",
    "nombre_municipio": "Ensenada",
    "clave_inegi": "02001",
    "nombre_inegi": "",
    "minx": "-118.301",
    "miny": "28.0006",
    "maxx": "-112.773",
    "maxy": "32.2839",
    "lat": "30.14222240447998",
    "lng": "-115.53708267211915"
  },
  {
    "id": "76",
    "clave_entidad": "2",
    "nombre_entidad": "Baja California",
    "clave_municipio": "2",
    "nombre_municipio": "Mexicali",
    "clave_inegi": "02002",
    "nombre_inegi": "",
    "minx": "-115.851",
    "miny": "30.8969",
    "maxx": "-114.713",
    "maxy": "32.7153",
    "lat": "31.80611133575439",
    "lng": "-115.28222274780273"
  },
  {
    "id": "77",
    "clave_entidad": "2",
    "nombre_entidad": "Baja California",
    "clave_municipio": "3",
    "nombre_municipio": "Tecate",
    "clave_inegi": "02003",
    "nombre_inegi": "",
    "minx": "-116.696",
    "miny": "32.24",
    "maxx": "-115.889",
    "maxy": "32.6117",
    "lat": "32.42583465576172",
    "lng": "-116.29263687133789"
  },
  {
    "id": "78",
    "clave_entidad": "2",
    "nombre_entidad": "Baja California",
    "clave_municipio": "4",
    "nombre_municipio": "Tijuana",
    "clave_inegi": "02004",
    "nombre_inegi": "",
    "minx": "-117.26",
    "miny": "32.2239",
    "maxx": "-116.525",
    "maxy": "32.5506",
    "lat": "32.387222290039055",
    "lng": "-116.89236068725585"
  },
  {
    "id": "79",
    "clave_entidad": "2",
    "nombre_entidad": "Baja California",
    "clave_municipio": "5",
    "nombre_municipio": "Playas de Rosarito",
    "clave_inegi": "02005",
    "nombre_inegi": "",
    "minx": "-117.094",
    "miny": "32.0969",
    "maxx": "-116.735",
    "maxy": "32.4136",
    "lat": "32.25527763366699",
    "lng": "-116.91444778442383"
  },
  {
    "id": "3",
    "clave_entidad": "3",
    "nombre_entidad": "Baja California Sur",
    "clave_municipio": "0",
    "nombre_municipio": "todo el estado",
    "clave_inegi": "03000",
    "nombre_inegi": "",
    "minx": "-115.17",
    "miny": "22.8733",
    "maxx": "-109.425",
    "maxy": "27.9983",
    "lat": "25.435832977294922",
    "lng": "-112.29750061035156"
  },
  {
    "id": "80",
    "clave_entidad": "3",
    "nombre_entidad": "Baja California Sur",
    "clave_municipio": "1",
    "nombre_municipio": "Comondu",
    "clave_inegi": "03001",
    "nombre_inegi": "",
    "minx": "-112.755",
    "miny": "24.3506",
    "maxx": "-110.966",
    "maxy": "26.5783",
    "lat": "25.464444160461426",
    "lng": "-111.8606948852539"
  },
  {
    "id": "81",
    "clave_entidad": "3",
    "nombre_entidad": "Baja California Sur",
    "clave_municipio": "2",
    "nombre_municipio": "Mulege",
    "clave_inegi": "03002",
    "nombre_inegi": "",
    "minx": "-115.17",
    "miny": "26.5119",
    "maxx": "-111.566",
    "maxy": "27.9983",
    "lat": "27.255138397216797",
    "lng": "-113.36777877807617"
  },
  {
    "id": "82",
    "clave_entidad": "3",
    "nombre_entidad": "Baja California Sur",
    "clave_municipio": "3",
    "nombre_municipio": "La Paz",
    "clave_inegi": "03003",
    "nombre_inegi": "",
    "minx": "-111.682",
    "miny": "23.1236",
    "maxx": "-109.7",
    "maxy": "25.0975",
    "lat": "24.110555648803707",
    "lng": "-110.69111251831055"
  },
  {
    "id": "83",
    "clave_entidad": "3",
    "nombre_entidad": "Baja California Sur",
    "clave_municipio": "8",
    "nombre_municipio": "Los Cabos",
    "clave_inegi": "03008",
    "nombre_inegi": "",
    "minx": "-110.103",
    "miny": "22.8733",
    "maxx": "-109.425",
    "maxy": "23.6575",
    "lat": "23.265416145324707",
    "lng": "-109.76416778564452"
  },
  {
    "id": "84",
    "clave_entidad": "3",
    "nombre_entidad": "Baja California Sur",
    "clave_municipio": "9",
    "nombre_municipio": "Loreto",
    "clave_inegi": "03009",
    "nombre_inegi": "",
    "minx": "-111.759",
    "miny": "25.2578",
    "maxx": "-110.951",
    "maxy": "26.5533",
    "lat": "25.905555725097656",
    "lng": "-111.35486221313478"
  },
  {
    "id": "3",
    "clave_entidad": "3",
    "nombre_entidad": "Baja California Sur",
    "clave_municipio": "0",
    "nombre_municipio": "todo el estado",
    "clave_inegi": "03000",
    "nombre_inegi": "",
    "minx": "-115.17",
    "miny": "22.8733",
    "maxx": "-109.425",
    "maxy": "27.9983",
    "lat": "25.435832977294922",
    "lng": "-112.29750061035156"
  },
  {
    "id": "80",
    "clave_entidad": "3",
    "nombre_entidad": "Baja California Sur",
    "clave_municipio": "1",
    "nombre_municipio": "Comondu",
    "clave_inegi": "03001",
    "nombre_inegi": "",
    "minx": "-112.755",
    "miny": "24.3506",
    "maxx": "-110.966",
    "maxy": "26.5783",
    "lat": "25.464444160461426",
    "lng": "-111.8606948852539"
  },
  {
    "id": "81",
    "clave_entidad": "3",
    "nombre_entidad": "Baja California Sur",
    "clave_municipio": "2",
    "nombre_municipio": "Mulege",
    "clave_inegi": "03002",
    "nombre_inegi": "",
    "minx": "-115.17",
    "miny": "26.5119",
    "maxx": "-111.566",
    "maxy": "27.9983",
    "lat": "27.255138397216797",
    "lng": "-113.36777877807617"
  },
  {
    "id": "82",
    "clave_entidad": "3",
    "nombre_entidad": "Baja California Sur",
    "clave_municipio": "3",
    "nombre_municipio": "La Paz",
    "clave_inegi": "03003",
    "nombre_inegi": "",
    "minx": "-111.682",
    "miny": "23.1236",
    "maxx": "-109.7",
    "maxy": "25.0975",
    "lat": "24.110555648803707",
    "lng": "-110.69111251831055"
  },
  {
    "id": "83",
    "clave_entidad": "3",
    "nombre_entidad": "Baja California Sur",
    "clave_municipio": "8",
    "nombre_municipio": "Los Cabos",
    "clave_inegi": "03008",
    "nombre_inegi": "",
    "minx": "-110.103",
    "miny": "22.8733",
    "maxx": "-109.425",
    "maxy": "23.6575",
    "lat": "23.265416145324707",
    "lng": "-109.76416778564452"
  },
  {
    "id": "84",
    "clave_entidad": "3",
    "nombre_entidad": "Baja California Sur",
    "clave_municipio": "9",
    "nombre_municipio": "Loreto",
    "clave_inegi": "03009",
    "nombre_inegi": "",
    "minx": "-111.759",
    "miny": "25.2578",
    "maxx": "-110.951",
    "maxy": "26.5533",
    "lat": "25.905555725097656",
    "lng": "-111.35486221313478"
  },
  {
    "id": "4",
    "clave_entidad": "4",
    "nombre_entidad": "Campeche",
    "clave_municipio": "0",
    "nombre_municipio": "todo el estado",
    "clave_inegi": "04000",
    "nombre_inegi": "",
    "minx": "-92.465",
    "miny": "17.8214",
    "maxx": "-89.1358",
    "maxy": "20.6911",
    "lat": "19.25624942779541",
    "lng": "-90.80041503906251"
  },
  {
    "id": "85",
    "clave_entidad": "4",
    "nombre_entidad": "Campeche",
    "clave_municipio": "1",
    "nombre_municipio": "Calkini",
    "clave_inegi": "04001",
    "nombre_inegi": "",
    "minx": "-90.4525",
    "miny": "20.1144",
    "maxx": "-89.8569",
    "maxy": "20.6911",
    "lat": "20.402777671813965",
    "lng": "-90.15472030639648"
  },
  {
    "id": "86",
    "clave_entidad": "4",
    "nombre_entidad": "Campeche",
    "clave_municipio": "2",
    "nombre_municipio": "Campeche",
    "clave_inegi": "04002",
    "nombre_inegi": "",
    "minx": "-91.9622",
    "miny": "19.2889",
    "maxx": "-89.8864",
    "maxy": "20.2042",
    "lat": "19.746527671813965",
    "lng": "-90.9243049621582"
  },
  {
    "id": "87",
    "clave_entidad": "4",
    "nombre_entidad": "Campeche",
    "clave_municipio": "3",
    "nombre_municipio": "Carmen",
    "clave_inegi": "04003",
    "nombre_inegi": "",
    "minx": "-92.465",
    "miny": "17.8878",
    "maxx": "-90.8286",
    "maxy": "19.0219",
    "lat": "18.45486068725586",
    "lng": "-91.6468048095703"
  },
  {
    "id": "88",
    "clave_entidad": "4",
    "nombre_entidad": "Campeche",
    "clave_municipio": "4",
    "nombre_municipio": "Champoton",
    "clave_inegi": "04004",
    "nombre_inegi": "",
    "minx": "-91.1819",
    "miny": "18.5736",
    "maxx": "-90.1781",
    "maxy": "19.6758",
    "lat": "19.12472152709961",
    "lng": "-90.6800003051758"
  },
  {
    "id": "89",
    "clave_entidad": "4",
    "nombre_entidad": "Campeche",
    "clave_municipio": "5",
    "nombre_municipio": "Hecelchakan",
    "clave_inegi": "04005",
    "nombre_inegi": "",
    "minx": "-90.4833",
    "miny": "19.9531",
    "maxx": "-89.905",
    "maxy": "20.2453",
    "lat": "20.099166870117188",
    "lng": "-90.19416427612305"
  },
  {
    "id": "90",
    "clave_entidad": "4",
    "nombre_entidad": "Campeche",
    "clave_municipio": "6",
    "nombre_municipio": "Hopelchen",
    "clave_inegi": "04006",
    "nombre_inegi": "",
    "minx": "-90.0478",
    "miny": "18.8978",
    "maxx": "-89.1475",
    "maxy": "20.1881",
    "lat": "19.542916297912598",
    "lng": "-89.59763717651367"
  },
  {
    "id": "91",
    "clave_entidad": "4",
    "nombre_entidad": "Campeche",
    "clave_municipio": "7",
    "nombre_municipio": "Palizada",
    "clave_inegi": "04007",
    "nombre_inegi": "",
    "minx": "-92.1522",
    "miny": "17.9361",
    "maxx": "-91.6725",
    "maxy": "18.5369",
    "lat": "18.236528396606445",
    "lng": "-91.91236114501953"
  },
  {
    "id": "92",
    "clave_entidad": "4",
    "nombre_entidad": "Campeche",
    "clave_municipio": "8",
    "nombre_municipio": "Tenabo",
    "clave_inegi": "04008",
    "nombre_inegi": "",
    "minx": "-90.4803",
    "miny": "19.8122",
    "maxx": "-90.0225",
    "maxy": "20.0944",
    "lat": "19.95333290100098",
    "lng": "-90.25138854980469"
  },
  {
    "id": "93",
    "clave_entidad": "4",
    "nombre_entidad": "Campeche",
    "clave_municipio": "9",
    "nombre_municipio": "Escarcega",
    "clave_inegi": "04009",
    "nombre_inegi": "",
    "minx": "-91.0197",
    "miny": "18.2647",
    "maxx": "-90.1228",
    "maxy": "18.9547",
    "lat": "18.609722137451172",
    "lng": "-90.57125091552733"
  },
  {
    "id": "94",
    "clave_entidad": "4",
    "nombre_entidad": "Campeche",
    "clave_municipio": "10",
    "nombre_municipio": "Calakmul",
    "clave_inegi": "04010",
    "nombre_inegi": "",
    "minx": "-90.1867",
    "miny": "17.8486",
    "maxx": "-89.1358",
    "maxy": "19.0058",
    "lat": "18.42722225189209",
    "lng": "-89.66125106811522"
  },
  {
    "id": "95",
    "clave_entidad": "4",
    "nombre_entidad": "Campeche",
    "clave_municipio": "11",
    "nombre_municipio": "Candelaria",
    "clave_inegi": "04011",
    "nombre_inegi": "",
    "minx": "-91.3214",
    "miny": "17.8214",
    "maxx": "-90.2514",
    "maxy": "18.5039",
    "lat": "18.162638664245605",
    "lng": "-90.7863883972168"
  },
  {
    "id": "5",
    "clave_entidad": "5",
    "nombre_entidad": "Coahuila de Zaragoza",
    "clave_municipio": "0",
    "nombre_municipio": "todo el estado",
    "clave_inegi": "05000",
    "nombre_inegi": "",
    "minx": "-103.908",
    "miny": "24.5597",
    "maxx": "-99.8483",
    "maxy": "29.8394",
    "lat": "27.199584007263184",
    "lng": "-101.87833404541017"
  },
  {
    "id": "96",
    "clave_entidad": "5",
    "nombre_entidad": "Coahuila de Zaragoza",
    "clave_municipio": "1",
    "nombre_municipio": "Abasolo",
    "clave_inegi": "05001",
    "nombre_inegi": "",
    "minx": "-101.433",
    "miny": "27.0411",
    "maxx": "-101.005",
    "maxy": "27.2347",
    "lat": "27.137916564941403",
    "lng": "-101.21889114379883"
  },
  {
    "id": "97",
    "clave_entidad": "5",
    "nombre_entidad": "Coahuila de Zaragoza",
    "clave_municipio": "2",
    "nombre_municipio": "Acu",
    "clave_inegi": "05002",
    "nombre_inegi": "",
    "minx": "-102.832",
    "miny": "29.0178",
    "maxx": "-100.857",
    "maxy": "29.8394",
    "lat": "29.428611755371094",
    "lng": "-101.84472274780273"
  },
  {
    "id": "98",
    "clave_entidad": "5",
    "nombre_entidad": "Coahuila de Zaragoza",
    "clave_municipio": "3",
    "nombre_municipio": "Allende",
    "clave_inegi": "05003",
    "nombre_inegi": "",
    "minx": "-101.029",
    "miny": "28.1958",
    "maxx": "-100.739",
    "maxy": "28.3778",
    "lat": "28.286805152893066",
    "lng": "-100.88375091552733"
  },
  {
    "id": "99",
    "clave_entidad": "5",
    "nombre_entidad": "Coahuila de Zaragoza",
    "clave_municipio": "4",
    "nombre_municipio": "Arteaga",
    "clave_inegi": "05004",
    "nombre_inegi": "",
    "minx": "-100.936",
    "miny": "25.1708",
    "maxx": "-100.242",
    "maxy": "25.5131",
    "lat": "25.341944694519043",
    "lng": "-100.5886116027832"
  },
  {
    "id": "100",
    "clave_entidad": "5",
    "nombre_entidad": "Coahuila de Zaragoza",
    "clave_municipio": "5",
    "nombre_municipio": "Candela",
    "clave_inegi": "05005",
    "nombre_inegi": "",
    "minx": "-101.041",
    "miny": "26.6358",
    "maxx": "-100.542",
    "maxy": "27.0697",
    "lat": "26.852778434753418",
    "lng": "-100.79166793823242"
  },
  {
    "id": "101",
    "clave_entidad": "5",
    "nombre_entidad": "Coahuila de Zaragoza",
    "clave_municipio": "6",
    "nombre_municipio": "Casta",
    "clave_inegi": "05006",
    "nombre_inegi": "",
    "minx": "-101.749",
    "miny": "26.2656",
    "maxx": "-101.03",
    "maxy": "26.8325",
    "lat": "26.54902839660645",
    "lng": "-101.38958358764647"
  },
  {
    "id": "102",
    "clave_entidad": "5",
    "nombre_entidad": "Coahuila de Zaragoza",
    "clave_municipio": "7",
    "nombre_municipio": "Cuatro Cienegas",
    "clave_inegi": "05007",
    "nombre_inegi": "",
    "minx": "-102.923",
    "miny": "26.0992",
    "maxx": "-101.524",
    "maxy": "27.2289",
    "lat": "26.66402816772461",
    "lng": "-102.22347259521484"
  },
  {
    "id": "103",
    "clave_entidad": "5",
    "nombre_entidad": "Coahuila de Zaragoza",
    "clave_municipio": "8",
    "nombre_municipio": "Escobedo",
    "clave_inegi": "05008",
    "nombre_inegi": "",
    "minx": "-101.479",
    "miny": "27.1369",
    "maxx": "-101.062",
    "maxy": "27.5019",
    "lat": "27.319443702697754",
    "lng": "-101.2704200744629"
  },
  {
    "id": "104",
    "clave_entidad": "5",
    "nombre_entidad": "Coahuila de Zaragoza",
    "clave_municipio": "9",
    "nombre_municipio": "Francisco I. Madero",
    "clave_inegi": "05009",
    "nombre_inegi": "",
    "minx": "-103.346",
    "miny": "25.7106",
    "maxx": "-103.026",
    "maxy": "26.7514",
    "lat": "26.230972290039062",
    "lng": "-103.18569564819336"
  },
  {
    "id": "105",
    "clave_entidad": "5",
    "nombre_entidad": "Coahuila de Zaragoza",
    "clave_municipio": "10",
    "nombre_municipio": "Frontera",
    "clave_inegi": "05010",
    "nombre_inegi": "",
    "minx": "-101.595",
    "miny": "26.8575",
    "maxx": "-101.359",
    "maxy": "27.0678",
    "lat": "26.962638854980472",
    "lng": "-101.47694396972656"
  },
  {
    "id": "106",
    "clave_entidad": "5",
    "nombre_entidad": "Coahuila de Zaragoza",
    "clave_municipio": "11",
    "nombre_municipio": "General Cepeda",
    "clave_inegi": "05011",
    "nombre_inegi": "",
    "minx": "-101.861",
    "miny": "25.1986",
    "maxx": "-101.287",
    "maxy": "25.7169",
    "lat": "25.457777023315426",
    "lng": "-101.57374954223633"
  },
  {
    "id": "107",
    "clave_entidad": "5",
    "nombre_entidad": "Coahuila de Zaragoza",
    "clave_municipio": "12",
    "nombre_municipio": "Guerrero",
    "clave_inegi": "05012",
    "nombre_inegi": "",
    "minx": "-100.643",
    "miny": "27.8342",
    "maxx": "-100.087",
    "maxy": "28.555",
    "lat": "28.194583892822266",
    "lng": "-100.36486434936523"
  },
  {
    "id": "108",
    "clave_entidad": "5",
    "nombre_entidad": "Coahuila de Zaragoza",
    "clave_municipio": "13",
    "nombre_municipio": "Hidalgo",
    "clave_inegi": "05013",
    "nombre_inegi": "",
    "minx": "-100.293",
    "miny": "27.6239",
    "maxx": "-99.8483",
    "maxy": "28.0722",
    "lat": "27.848054885864254",
    "lng": "-100.07083511352538"
  },
  {
    "id": "109",
    "clave_entidad": "5",
    "nombre_entidad": "Coahuila de Zaragoza",
    "clave_municipio": "14",
    "nombre_municipio": "Jimenez",
    "clave_inegi": "05014",
    "nombre_inegi": "",
    "minx": "-101.306",
    "miny": "28.7319",
    "maxx": "-100.651",
    "maxy": "29.2578",
    "lat": "28.994861602783203",
    "lng": "-100.97861099243164"
  },
  {
    "id": "110",
    "clave_entidad": "5",
    "nombre_entidad": "Coahuila de Zaragoza",
    "clave_municipio": "15",
    "nombre_municipio": "Juarez",
    "clave_inegi": "05015",
    "nombre_inegi": "",
    "minx": "-101.01",
    "miny": "27.3983",
    "maxx": "-100.378",
    "maxy": "27.8792",
    "lat": "27.63875007629395",
    "lng": "-100.69402694702147"
  },
  {
    "id": "111",
    "clave_entidad": "5",
    "nombre_entidad": "Coahuila de Zaragoza",
    "clave_municipio": "16",
    "nombre_municipio": "Lamadrid",
    "clave_inegi": "05016",
    "nombre_inegi": "",
    "minx": "-101.967",
    "miny": "27.0264",
    "maxx": "-101.721",
    "maxy": "27.2339",
    "lat": "27.130138397216797",
    "lng": "-101.84416580200195"
  },
  {
    "id": "112",
    "clave_entidad": "5",
    "nombre_entidad": "Coahuila de Zaragoza",
    "clave_municipio": "17",
    "nombre_municipio": "Matamoros",
    "clave_inegi": "05017",
    "nombre_inegi": "",
    "minx": "-103.364",
    "miny": "25.3725",
    "maxx": "-103.091",
    "maxy": "25.7628",
    "lat": "25.567638397216797",
    "lng": "-103.22749710083008"
  },
  {
    "id": "113",
    "clave_entidad": "5",
    "nombre_entidad": "Coahuila de Zaragoza",
    "clave_municipio": "18",
    "nombre_municipio": "Monclova",
    "clave_inegi": "05018",
    "nombre_inegi": "",
    "minx": "-101.475",
    "miny": "26.7792",
    "maxx": "-100.973",
    "maxy": "27.0517",
    "lat": "26.915416717529297",
    "lng": "-101.22389221191406"
  },
  {
    "id": "114",
    "clave_entidad": "5",
    "nombre_entidad": "Coahuila de Zaragoza",
    "clave_municipio": "19",
    "nombre_municipio": "Morelos",
    "clave_inegi": "05019",
    "nombre_inegi": "",
    "minx": "-101.295",
    "miny": "28.2581",
    "maxx": "-100.81",
    "maxy": "28.4506",
    "lat": "28.354305267333984",
    "lng": "-101.05249786376952"
  },
  {
    "id": "115",
    "clave_entidad": "5",
    "nombre_entidad": "Coahuila de Zaragoza",
    "clave_municipio": "20",
    "nombre_municipio": "Muzquiz",
    "clave_inegi": "05020",
    "nombre_inegi": "",
    "minx": "-102.613",
    "miny": "27.6369",
    "maxx": "-101.277",
    "maxy": "29.0364",
    "lat": "28.336666107177734",
    "lng": "-101.94527435302734"
  },
  {
    "id": "116",
    "clave_entidad": "5",
    "nombre_entidad": "Coahuila de Zaragoza",
    "clave_municipio": "21",
    "nombre_municipio": "Nadadores",
    "clave_inegi": "05021",
    "nombre_inegi": "",
    "minx": "-101.883",
    "miny": "26.9819",
    "maxx": "-101.533",
    "maxy": "27.4469",
    "lat": "27.214445114135742",
    "lng": "-101.70833206176758"
  },
  {
    "id": "117",
    "clave_entidad": "5",
    "nombre_entidad": "Coahuila de Zaragoza",
    "clave_municipio": "22",
    "nombre_municipio": "Nava",
    "clave_inegi": "05022",
    "nombre_inegi": "",
    "minx": "-100.818",
    "miny": "28.3694",
    "maxx": "-100.415",
    "maxy": "28.6472",
    "lat": "28.50833320617676",
    "lng": "-100.61624908447266"
  },
  {
    "id": "118",
    "clave_entidad": "5",
    "nombre_entidad": "Coahuila de Zaragoza",
    "clave_municipio": "23",
    "nombre_municipio": "Ocampo",
    "clave_inegi": "05023",
    "nombre_inegi": "",
    "minx": "-103.601",
    "miny": "26.9781",
    "maxx": "-101.926",
    "maxy": "29.1914",
    "lat": "28.084722518920902",
    "lng": "-102.7634735107422"
  },
  {
    "id": "119",
    "clave_entidad": "5",
    "nombre_entidad": "Coahuila de Zaragoza",
    "clave_municipio": "24",
    "nombre_municipio": "Parras",
    "clave_inegi": "05024",
    "nombre_inegi": "",
    "minx": "-102.724",
    "miny": "24.8094",
    "maxx": "-101.385",
    "maxy": "26.0511",
    "lat": "25.430277824401855",
    "lng": "-102.05458450317384"
  },
  {
    "id": "120",
    "clave_entidad": "5",
    "nombre_entidad": "Coahuila de Zaragoza",
    "clave_municipio": "25",
    "nombre_municipio": "Piedras Negras",
    "clave_inegi": "05025",
    "nombre_inegi": "",
    "minx": "-100.728",
    "miny": "28.6208",
    "maxx": "-100.464",
    "maxy": "28.925",
    "lat": "28.772915840148926",
    "lng": "-100.59625244140626"
  },
  {
    "id": "121",
    "clave_entidad": "5",
    "nombre_entidad": "Coahuila de Zaragoza",
    "clave_municipio": "26",
    "nombre_municipio": "Progreso",
    "clave_inegi": "05026",
    "nombre_inegi": "",
    "minx": "-101.594",
    "miny": "27.0806",
    "maxx": "-100.448",
    "maxy": "27.6858",
    "lat": "27.383193969726562",
    "lng": "-101.02097320556639"
  },
  {
    "id": "122",
    "clave_entidad": "5",
    "nombre_entidad": "Coahuila de Zaragoza",
    "clave_municipio": "27",
    "nombre_municipio": "Ramos Arizpe",
    "clave_inegi": "05027",
    "nombre_inegi": "",
    "minx": "-101.774",
    "miny": "25.4542",
    "maxx": "-100.636",
    "maxy": "26.3103",
    "lat": "25.88222217559814",
    "lng": "-101.20499801635742"
  },
  {
    "id": "123",
    "clave_entidad": "5",
    "nombre_entidad": "Coahuila de Zaragoza",
    "clave_municipio": "28",
    "nombre_municipio": "Sabinas",
    "clave_inegi": "05028",
    "nombre_inegi": "",
    "minx": "-101.36",
    "miny": "27.6442",
    "maxx": "-100.905",
    "maxy": "28.2433",
    "lat": "27.943750381469723",
    "lng": "-101.1324996948242"
  },
  {
    "id": "124",
    "clave_entidad": "5",
    "nombre_entidad": "Coahuila de Zaragoza",
    "clave_municipio": "29",
    "nombre_municipio": "Sacramento",
    "clave_inegi": "05029",
    "nombre_inegi": "",
    "minx": "-101.808",
    "miny": "26.9567",
    "maxx": "-101.682",
    "maxy": "27.0344",
    "lat": "26.995555877685547",
    "lng": "-101.74499893188477"
  },
  {
    "id": "125",
    "clave_entidad": "5",
    "nombre_entidad": "Coahuila de Zaragoza",
    "clave_municipio": "30",
    "nombre_municipio": "Saltillo",
    "clave_inegi": "05030",
    "nombre_inegi": "",
    "minx": "-101.586",
    "miny": "24.5597",
    "maxx": "-100.738",
    "maxy": "25.5089",
    "lat": "25.034305572509766",
    "lng": "-101.16180801391602"
  },
  {
    "id": "126",
    "clave_entidad": "5",
    "nombre_entidad": "Coahuila de Zaragoza",
    "clave_municipio": "31",
    "nombre_municipio": "San Buenaventura",
    "clave_inegi": "05031",
    "nombre_inegi": "",
    "minx": "-102.412",
    "miny": "27.0167",
    "maxx": "-101.455",
    "maxy": "28.5911",
    "lat": "27.803888320922848",
    "lng": "-101.93375015258789"
  },
  {
    "id": "127",
    "clave_entidad": "5",
    "nombre_entidad": "Coahuila de Zaragoza",
    "clave_municipio": "32",
    "nombre_municipio": "San Juan de Sabinas",
    "clave_inegi": "05032",
    "nombre_inegi": "",
    "minx": "-101.557",
    "miny": "27.8833",
    "maxx": "-101.196",
    "maxy": "28.2208",
    "lat": "28.052083015441895",
    "lng": "-101.37652969360353"
  },
  {
    "id": "128",
    "clave_entidad": "5",
    "nombre_entidad": "Coahuila de Zaragoza",
    "clave_municipio": "33",
    "nombre_municipio": "San Pedro",
    "clave_inegi": "05033",
    "nombre_inegi": "",
    "minx": "-103.223",
    "miny": "25.625",
    "maxx": "-102.046",
    "maxy": "26.4881",
    "lat": "26.056528091430668",
    "lng": "-102.63430404663086"
  },
  {
    "id": "129",
    "clave_entidad": "5",
    "nombre_entidad": "Coahuila de Zaragoza",
    "clave_municipio": "34",
    "nombre_municipio": "Sierra Mojada",
    "clave_inegi": "05034",
    "nombre_inegi": "",
    "minx": "-103.908",
    "miny": "26.6897",
    "maxx": "-103.204",
    "maxy": "28.4697",
    "lat": "27.57972240447998",
    "lng": "-103.55638885498045"
  },
  {
    "id": "130",
    "clave_entidad": "5",
    "nombre_entidad": "Coahuila de Zaragoza",
    "clave_municipio": "35",
    "nombre_municipio": "Torreon",
    "clave_inegi": "05035",
    "nombre_inegi": "",
    "minx": "-103.501",
    "miny": "25.0006",
    "maxx": "-103.102",
    "maxy": "25.6778",
    "lat": "25.339166641235348",
    "lng": "-103.30111312866211"
  },
  {
    "id": "131",
    "clave_entidad": "5",
    "nombre_entidad": "Coahuila de Zaragoza",
    "clave_municipio": "36",
    "nombre_municipio": "Viesca",
    "clave_inegi": "05036",
    "nombre_inegi": "",
    "minx": "-103.487",
    "miny": "24.7644",
    "maxx": "-102.537",
    "maxy": "25.5417",
    "lat": "25.153055191040036",
    "lng": "-103.01194381713867"
  },
  {
    "id": "132",
    "clave_entidad": "5",
    "nombre_entidad": "Coahuila de Zaragoza",
    "clave_municipio": "37",
    "nombre_municipio": "Villa Union",
    "clave_inegi": "05037",
    "nombre_inegi": "",
    "minx": "-101.026",
    "miny": "27.8522",
    "maxx": "-100.571",
    "maxy": "28.3653",
    "lat": "28.10875034332275",
    "lng": "-100.79833602905273"
  },
  {
    "id": "133",
    "clave_entidad": "5",
    "nombre_entidad": "Coahuila de Zaragoza",
    "clave_municipio": "38",
    "nombre_municipio": "Zaragoza",
    "clave_inegi": "05038",
    "nombre_inegi": "",
    "minx": "-101.945",
    "miny": "28.3922",
    "maxx": "-100.609",
    "maxy": "29.3406",
    "lat": "28.866388320922848",
    "lng": "-101.27694320678711"
  },
  {
    "id": "6",
    "clave_entidad": "6",
    "nombre_entidad": "Colima",
    "clave_municipio": "0",
    "nombre_municipio": "todo el estado",
    "clave_inegi": "06000",
    "nombre_inegi": "",
    "minx": "-114.757",
    "miny": "18.3547",
    "maxx": "-103.501",
    "maxy": "19.4778",
    "lat": "18.916250228881832",
    "lng": "-109.12874984741211"
  },
  {
    "id": "134",
    "clave_entidad": "6",
    "nombre_entidad": "Colima",
    "clave_municipio": "1",
    "nombre_municipio": "Armeria",
    "clave_inegi": "06001",
    "nombre_inegi": "",
    "minx": "-104.113",
    "miny": "18.8753",
    "maxx": "-103.901",
    "maxy": "19.13",
    "lat": "19.002638816833496",
    "lng": "-104.00708007812499"
  },
  {
    "id": "135",
    "clave_entidad": "6",
    "nombre_entidad": "Colima",
    "clave_municipio": "2",
    "nombre_municipio": "Colima",
    "clave_inegi": "06002",
    "nombre_inegi": "",
    "minx": "-103.804",
    "miny": "18.9083",
    "maxx": "-103.501",
    "maxy": "19.3197",
    "lat": "19.114027976989746",
    "lng": "-103.65208435058595"
  },
  {
    "id": "136",
    "clave_entidad": "6",
    "nombre_entidad": "Colima",
    "clave_municipio": "3",
    "nombre_municipio": "Comala",
    "clave_inegi": "06003",
    "nombre_inegi": "",
    "minx": "-103.89",
    "miny": "19.2808",
    "maxx": "-103.672",
    "maxy": "19.4758",
    "lat": "19.378334045410156",
    "lng": "-103.78097152709961"
  },
  {
    "id": "137",
    "clave_entidad": "6",
    "nombre_entidad": "Colima",
    "clave_municipio": "4",
    "nombre_municipio": "Coquimatlan",
    "clave_inegi": "06004",
    "nombre_inegi": "",
    "minx": "-104.039",
    "miny": "19.0978",
    "maxx": "-103.781",
    "maxy": "19.2631",
    "lat": "19.180417060852047",
    "lng": "-103.90985870361328"
  },
  {
    "id": "138",
    "clave_entidad": "6",
    "nombre_entidad": "Colima",
    "clave_municipio": "5",
    "nombre_municipio": "Cuauhtemoc",
    "clave_inegi": "06005",
    "nombre_inegi": "",
    "minx": "-103.69",
    "miny": "19.1947",
    "maxx": "-103.509",
    "maxy": "19.4536",
    "lat": "19.324167251586918",
    "lng": "-103.59930419921874"
  },
  {
    "id": "139",
    "clave_entidad": "6",
    "nombre_entidad": "Colima",
    "clave_municipio": "6",
    "nombre_municipio": "Ixtlahuacan",
    "clave_inegi": "06006",
    "nombre_inegi": "",
    "minx": "-103.757",
    "miny": "18.8589",
    "maxx": "-103.593",
    "maxy": "19.0706",
    "lat": "18.9647216796875",
    "lng": "-103.67527770996094"
  },
  {
    "id": "140",
    "clave_entidad": "6",
    "nombre_entidad": "Colima",
    "clave_municipio": "7",
    "nombre_municipio": "Manzanillo",
    "clave_inegi": "06007",
    "nombre_inegi": "",
    "minx": "-112.065",
    "miny": "18.9494",
    "maxx": "-104.042",
    "maxy": "19.3014",
    "lat": "19.12541675567627",
    "lng": "-108.05361175537111"
  },
  {
    "id": "141",
    "clave_entidad": "6",
    "nombre_entidad": "Colima",
    "clave_municipio": "8",
    "nombre_municipio": "Minatitlan",
    "clave_inegi": "06008",
    "nombre_inegi": "",
    "minx": "-104.179",
    "miny": "19.265",
    "maxx": "-103.901",
    "maxy": "19.4778",
    "lat": "19.37138843536377",
    "lng": "-104.03986358642578"
  },
  {
    "id": "142",
    "clave_entidad": "6",
    "nombre_entidad": "Colima",
    "clave_municipio": "9",
    "nombre_municipio": "Tecoman",
    "clave_inegi": "06009",
    "nombre_inegi": "",
    "minx": "-114.757",
    "miny": "18.3547",
    "maxx": "-103.634",
    "maxy": "19.1114",
    "lat": "18.733056068420407",
    "lng": "-109.19527816772462"
  },
  {
    "id": "143",
    "clave_entidad": "6",
    "nombre_entidad": "Colima",
    "clave_municipio": "10",
    "nombre_municipio": "Villa de Alvarez",
    "clave_inegi": "06010",
    "nombre_inegi": "",
    "minx": "-103.997",
    "miny": "19.2461",
    "maxx": "-103.655",
    "maxy": "19.4217",
    "lat": "19.33388900756836",
    "lng": "-103.8259735107422"
  },
  {
    "id": "7",
    "clave_entidad": "7",
    "nombre_entidad": "Chiapas",
    "clave_municipio": "0",
    "nombre_municipio": "todo el estado",
    "clave_inegi": "07000",
    "nombre_inegi": "",
    "minx": "-94.1206",
    "miny": "14.5356",
    "maxx": "-90.4153",
    "maxy": "17.9769",
    "lat": "16.25624990463257",
    "lng": "-92.26791381835938"
  },
  {
    "id": "144",
    "clave_entidad": "7",
    "nombre_entidad": "Chiapas",
    "clave_municipio": "1",
    "nombre_municipio": "Acacoyagua",
    "clave_inegi": "07001",
    "nombre_inegi": "",
    "minx": "-92.7631",
    "miny": "15.3217",
    "maxx": "-92.6256",
    "maxy": "15.4833",
    "lat": "15.40250015258789",
    "lng": "-92.69430541992189"
  },
  {
    "id": "145",
    "clave_entidad": "7",
    "nombre_entidad": "Chiapas",
    "clave_municipio": "2",
    "nombre_municipio": "Acala",
    "clave_inegi": "07002",
    "nombre_inegi": "",
    "minx": "-92.9456",
    "miny": "16.3969",
    "maxx": "-92.7406",
    "maxy": "16.6394",
    "lat": "16.518194198608402",
    "lng": "-92.84305572509767"
  },
  {
    "id": "146",
    "clave_entidad": "7",
    "nombre_entidad": "Chiapas",
    "clave_municipio": "3",
    "nombre_municipio": "Acapetahua",
    "clave_inegi": "07003",
    "nombre_inegi": "",
    "minx": "-92.8881",
    "miny": "15.0672",
    "maxx": "-92.6422",
    "maxy": "15.3883",
    "lat": "15.22777795791626",
    "lng": "-92.76513671874999"
  },
  {
    "id": "147",
    "clave_entidad": "7",
    "nombre_entidad": "Chiapas",
    "clave_municipio": "4",
    "nombre_municipio": "Altamirano",
    "clave_inegi": "07004",
    "nombre_inegi": "",
    "minx": "-92.1181",
    "miny": "16.505",
    "maxx": "-91.56",
    "maxy": "16.8417",
    "lat": "16.673333168029785",
    "lng": "-91.83902740478516"
  },
  {
    "id": "148",
    "clave_entidad": "7",
    "nombre_entidad": "Chiapas",
    "clave_municipio": "5",
    "nombre_municipio": "Amatan",
    "clave_inegi": "07005",
    "nombre_inegi": "",
    "minx": "-92.9247",
    "miny": "17.2836",
    "maxx": "-92.7578",
    "maxy": "17.505",
    "lat": "17.394305229187008",
    "lng": "-92.84124755859376"
  },
  {
    "id": "149",
    "clave_entidad": "7",
    "nombre_entidad": "Chiapas",
    "clave_municipio": "6",
    "nombre_municipio": "Amatenango de la Frontera",
    "clave_inegi": "07006",
    "nombre_inegi": "",
    "minx": "-92.1958",
    "miny": "15.4067",
    "maxx": "-91.9978",
    "maxy": "15.6367",
    "lat": "15.521666526794435",
    "lng": "-92.09680557250978"
  },
  {
    "id": "150",
    "clave_entidad": "7",
    "nombre_entidad": "Chiapas",
    "clave_municipio": "7",
    "nombre_municipio": "Amatenango del Valle",
    "clave_inegi": "07007",
    "nombre_inegi": "",
    "minx": "-92.4761",
    "miny": "16.4528",
    "maxx": "-92.3156",
    "maxy": "16.5658",
    "lat": "16.509305953979492",
    "lng": "-92.39583206176758"
  },
  {
    "id": "151",
    "clave_entidad": "7",
    "nombre_entidad": "Chiapas",
    "clave_municipio": "8",
    "nombre_municipio": "Angel Albino Corzo",
    "clave_inegi": "07008",
    "nombre_inegi": "",
    "minx": "-92.8203",
    "miny": "15.6228",
    "maxx": "-92.4978",
    "maxy": "15.8797",
    "lat": "15.75125026702881",
    "lng": "-92.65902709960939"
  },
  {
    "id": "152",
    "clave_entidad": "7",
    "nombre_entidad": "Chiapas",
    "clave_municipio": "9",
    "nombre_municipio": "Arriaga",
    "clave_inegi": "07009",
    "nombre_inegi": "",
    "minx": "-94.1022",
    "miny": "16.1033",
    "maxx": "-93.7631",
    "maxy": "16.4056",
    "lat": "16.254444122314453",
    "lng": "-93.93263626098634"
  },
  {
    "id": "153",
    "clave_entidad": "7",
    "nombre_entidad": "Chiapas",
    "clave_municipio": "10",
    "nombre_municipio": "Bejucal de Ocampo",
    "clave_inegi": "07010",
    "nombre_inegi": "",
    "minx": "-92.1983",
    "miny": "15.4389",
    "maxx": "-92.1169",
    "maxy": "15.5456",
    "lat": "15.49222183227539",
    "lng": "-92.15763854980467"
  },
  {
    "id": "154",
    "clave_entidad": "7",
    "nombre_entidad": "Chiapas",
    "clave_municipio": "11",
    "nombre_municipio": "Bella Vista",
    "clave_inegi": "07011",
    "nombre_inegi": "",
    "minx": "-92.315",
    "miny": "15.5539",
    "maxx": "-92.1517",
    "maxy": "15.695",
    "lat": "15.624444484710693",
    "lng": "-92.23333358764648"
  },
  {
    "id": "155",
    "clave_entidad": "7",
    "nombre_entidad": "Chiapas",
    "clave_municipio": "12",
    "nombre_municipio": "Berriozabal",
    "clave_inegi": "07012",
    "nombre_inegi": "",
    "minx": "-93.4267",
    "miny": "16.7203",
    "maxx": "-93.2097",
    "maxy": "17.025",
    "lat": "16.872638702392578",
    "lng": "-93.31819534301758"
  },
  {
    "id": "156",
    "clave_entidad": "7",
    "nombre_entidad": "Chiapas",
    "clave_municipio": "13",
    "nombre_municipio": "Bochil",
    "clave_inegi": "07013",
    "nombre_inegi": "",
    "minx": "-93.0661",
    "miny": "16.9331",
    "maxx": "-92.8206",
    "maxy": "17.1258",
    "lat": "17.029444694519043",
    "lng": "-92.94333267211914"
  },
  {
    "id": "157",
    "clave_entidad": "7",
    "nombre_entidad": "Chiapas",
    "clave_municipio": "14",
    "nombre_municipio": "El Bosque",
    "clave_inegi": "07014",
    "nombre_inegi": "",
    "minx": "-92.8083",
    "miny": "16.9561",
    "maxx": "-92.6811",
    "maxy": "17.0894",
    "lat": "17.022778511047363",
    "lng": "-92.74472427368164"
  },
  {
    "id": "158",
    "clave_entidad": "7",
    "nombre_entidad": "Chiapas",
    "clave_municipio": "15",
    "nombre_municipio": "Cacahoatan",
    "clave_inegi": "07015",
    "nombre_inegi": "",
    "minx": "-92.2206",
    "miny": "14.9892",
    "maxx": "-92.1239",
    "maxy": "15.1881",
    "lat": "15.088611125946045",
    "lng": "-92.17222213745117"
  },
  {
    "id": "159",
    "clave_entidad": "7",
    "nombre_entidad": "Chiapas",
    "clave_municipio": "16",
    "nombre_municipio": "Catazaja",
    "clave_inegi": "07016",
    "nombre_inegi": "",
    "minx": "-92.1817",
    "miny": "17.5969",
    "maxx": "-91.7883",
    "maxy": "17.9136",
    "lat": "17.755277633666992",
    "lng": "-91.9849967956543"
  },
  {
    "id": "160",
    "clave_entidad": "7",
    "nombre_entidad": "Chiapas",
    "clave_municipio": "17",
    "nombre_municipio": "Cintalapa",
    "clave_inegi": "07017",
    "nombre_inegi": "",
    "minx": "-94.1206",
    "miny": "16.3758",
    "maxx": "-93.6386",
    "maxy": "17.0333",
    "lat": "16.704583168029785",
    "lng": "-93.87958145141603"
  },
  {
    "id": "161",
    "clave_entidad": "7",
    "nombre_entidad": "Chiapas",
    "clave_municipio": "18",
    "nombre_municipio": "Coapilla",
    "clave_inegi": "07018",
    "nombre_inegi": "",
    "minx": "-93.2006",
    "miny": "17.0647",
    "maxx": "-93.0456",
    "maxy": "17.1739",
    "lat": "17.11930561065674",
    "lng": "-93.12305450439452"
  },
  {
    "id": "162",
    "clave_entidad": "7",
    "nombre_entidad": "Chiapas",
    "clave_municipio": "19",
    "nombre_municipio": "Comitan de Dominguez",
    "clave_inegi": "07019",
    "nombre_inegi": "",
    "minx": "-92.3417",
    "miny": "16.0244",
    "maxx": "-92.0083",
    "maxy": "16.5225",
    "lat": "16.27347183227539",
    "lng": "-92.17499923706056"
  },
  {
    "id": "163",
    "clave_entidad": "7",
    "nombre_entidad": "Chiapas",
    "clave_municipio": "20",
    "nombre_municipio": "La Concordia",
    "clave_inegi": "07020",
    "nombre_inegi": "",
    "minx": "-93.1225",
    "miny": "15.6756",
    "maxx": "-92.3008",
    "maxy": "16.2433",
    "lat": "15.959444522857664",
    "lng": "-92.71166610717773"
  },
  {
    "id": "164",
    "clave_entidad": "7",
    "nombre_entidad": "Chiapas",
    "clave_municipio": "21",
    "nombre_municipio": "Copainala",
    "clave_inegi": "07021",
    "nombre_inegi": "",
    "minx": "-93.3778",
    "miny": "17.0103",
    "maxx": "-93.1469",
    "maxy": "17.2117",
    "lat": "17.11097240447998",
    "lng": "-93.26235961914061"
  },
  {
    "id": "165",
    "clave_entidad": "7",
    "nombre_entidad": "Chiapas",
    "clave_municipio": "22",
    "nombre_municipio": "Chalchihuitan",
    "clave_inegi": "07022",
    "nombre_inegi": "",
    "minx": "-92.6653",
    "miny": "16.9567",
    "maxx": "-92.55",
    "maxy": "17.0853",
    "lat": "17.02097225189209",
    "lng": "-92.60763931274414"
  },
  {
    "id": "166",
    "clave_entidad": "7",
    "nombre_entidad": "Chiapas",
    "clave_municipio": "23",
    "nombre_municipio": "Chamula",
    "clave_inegi": "07023",
    "nombre_inegi": "",
    "minx": "-92.8236",
    "miny": "16.7497",
    "maxx": "-92.5375",
    "maxy": "16.8914",
    "lat": "16.820554733276367",
    "lng": "-92.6805534362793"
  },
  {
    "id": "167",
    "clave_entidad": "7",
    "nombre_entidad": "Chiapas",
    "clave_municipio": "24",
    "nombre_municipio": "Chanal",
    "clave_inegi": "07024",
    "nombre_inegi": "",
    "minx": "-92.3433",
    "miny": "16.5239",
    "maxx": "-92.0258",
    "maxy": "16.71",
    "lat": "16.616944313049316",
    "lng": "-92.1845817565918"
  },
  {
    "id": "168",
    "clave_entidad": "7",
    "nombre_entidad": "Chiapas",
    "clave_municipio": "25",
    "nombre_municipio": "Chapultenango",
    "clave_inegi": "07025",
    "nombre_inegi": "",
    "minx": "-93.205",
    "miny": "17.2692",
    "maxx": "-93.0492",
    "maxy": "17.4061",
    "lat": "17.337638854980472",
    "lng": "-93.12708282470703"
  },
  {
    "id": "169",
    "clave_entidad": "7",
    "nombre_entidad": "Chiapas",
    "clave_municipio": "26",
    "nombre_municipio": "Chenalho",
    "clave_inegi": "07026",
    "nombre_inegi": "",
    "minx": "-92.6942",
    "miny": "16.8819",
    "maxx": "-92.4778",
    "maxy": "17.0556",
    "lat": "16.96875",
    "lng": "-92.58597183227539"
  },
  {
    "id": "170",
    "clave_entidad": "7",
    "nombre_entidad": "Chiapas",
    "clave_municipio": "27",
    "nombre_municipio": "Chiapa de Corzo",
    "clave_inegi": "07027",
    "nombre_inegi": "",
    "minx": "-93.0864",
    "miny": "16.3239",
    "maxx": "-92.8619",
    "maxy": "16.8972",
    "lat": "16.61055564880371",
    "lng": "-92.97416687011719"
  },
  {
    "id": "171",
    "clave_entidad": "7",
    "nombre_entidad": "Chiapas",
    "clave_municipio": "28",
    "nombre_municipio": "Chiapilla",
    "clave_inegi": "07028",
    "nombre_inegi": "",
    "minx": "-92.7622",
    "miny": "16.5278",
    "maxx": "-92.6972",
    "maxy": "16.5836",
    "lat": "16.555694580078125",
    "lng": "-92.72972106933594"
  },
  {
    "id": "172",
    "clave_entidad": "7",
    "nombre_entidad": "Chiapas",
    "clave_municipio": "29",
    "nombre_municipio": "Chicoasen",
    "clave_inegi": "07029",
    "nombre_inegi": "",
    "minx": "-93.1556",
    "miny": "16.9417",
    "maxx": "-93.0672",
    "maxy": "17.0403",
    "lat": "16.990972518920902",
    "lng": "-93.11138916015625"
  },
  {
    "id": "173",
    "clave_entidad": "7",
    "nombre_entidad": "Chiapas",
    "clave_municipio": "30",
    "nombre_municipio": "Chicomuselo",
    "clave_inegi": "07030",
    "nombre_inegi": "",
    "minx": "-92.6047",
    "miny": "15.6567",
    "maxx": "-92.1906",
    "maxy": "15.9417",
    "lat": "15.799166679382326",
    "lng": "-92.39763641357423"
  },
  {
    "id": "174",
    "clave_entidad": "7",
    "nombre_entidad": "Chiapas",
    "clave_municipio": "31",
    "nombre_municipio": "Chilon",
    "clave_inegi": "07031",
    "nombre_inegi": "",
    "minx": "-92.3931",
    "miny": "16.9517",
    "maxx": "-91.6608",
    "maxy": "17.2589",
    "lat": "17.105277061462402",
    "lng": "-92.02694702148438"
  },
  {
    "id": "175",
    "clave_entidad": "7",
    "nombre_entidad": "Chiapas",
    "clave_municipio": "32",
    "nombre_municipio": "Escuintla",
    "clave_inegi": "07032",
    "nombre_inegi": "",
    "minx": "-92.7194",
    "miny": "15.2161",
    "maxx": "-92.45",
    "maxy": "15.4708",
    "lat": "15.343472480773928",
    "lng": "-92.58472061157227"
  },
  {
    "id": "176",
    "clave_entidad": "7",
    "nombre_entidad": "Chiapas",
    "clave_municipio": "33",
    "nombre_municipio": "Francisco Leon",
    "clave_inegi": "07033",
    "nombre_inegi": "",
    "minx": "-93.3753",
    "miny": "17.2208",
    "maxx": "-93.2089",
    "maxy": "17.3517",
    "lat": "17.286250114440918",
    "lng": "-93.29207992553711"
  },
  {
    "id": "177",
    "clave_entidad": "7",
    "nombre_entidad": "Chiapas",
    "clave_municipio": "34",
    "nombre_municipio": "Frontera Comalapa",
    "clave_inegi": "07034",
    "nombre_inegi": "",
    "minx": "-92.2431",
    "miny": "15.6308",
    "maxx": "-91.9178",
    "maxy": "15.9222",
    "lat": "15.776527881622313",
    "lng": "-92.08041763305664"
  },
  {
    "id": "178",
    "clave_entidad": "7",
    "nombre_entidad": "Chiapas",
    "clave_municipio": "35",
    "nombre_municipio": "Frontera Hidalgo",
    "clave_inegi": "07035",
    "nombre_inegi": "",
    "minx": "-92.2467",
    "miny": "14.7136",
    "maxx": "-92.1692",
    "maxy": "14.7897",
    "lat": "14.75166654586792",
    "lng": "-92.20791625976561"
  },
  {
    "id": "179",
    "clave_entidad": "7",
    "nombre_entidad": "Chiapas",
    "clave_municipio": "36",
    "nombre_municipio": "La Grandeza",
    "clave_inegi": "07036",
    "nombre_inegi": "",
    "minx": "-92.2481",
    "miny": "15.4614",
    "maxx": "-92.1908",
    "maxy": "15.5542",
    "lat": "15.507777690887451",
    "lng": "-92.21944427490233"
  },
  {
    "id": "180",
    "clave_entidad": "7",
    "nombre_entidad": "Chiapas",
    "clave_municipio": "37",
    "nombre_municipio": "Huehuetan",
    "clave_inegi": "07037",
    "nombre_inegi": "",
    "minx": "-92.5383",
    "miny": "14.9483",
    "maxx": "-92.3194",
    "maxy": "15.1022",
    "lat": "15.025278091430664",
    "lng": "-92.42888641357423"
  },
  {
    "id": "181",
    "clave_entidad": "7",
    "nombre_entidad": "Chiapas",
    "clave_municipio": "38",
    "nombre_municipio": "Huixtan",
    "clave_inegi": "07038",
    "nombre_inegi": "",
    "minx": "-92.5111",
    "miny": "16.6406",
    "maxx": "-92.2878",
    "maxy": "16.7694",
    "lat": "16.704999923706055",
    "lng": "-92.39944458007812"
  },
  {
    "id": "182",
    "clave_entidad": "7",
    "nombre_entidad": "Chiapas",
    "clave_municipio": "39",
    "nombre_municipio": "Huitiupan",
    "clave_inegi": "07039",
    "nombre_inegi": "",
    "minx": "-92.8106",
    "miny": "17.1472",
    "maxx": "-92.5942",
    "maxy": "17.3111",
    "lat": "17.229166984558105",
    "lng": "-92.70236206054689"
  },
  {
    "id": "183",
    "clave_entidad": "7",
    "nombre_entidad": "Chiapas",
    "clave_municipio": "40",
    "nombre_municipio": "Huixtla",
    "clave_inegi": "07040",
    "nombre_inegi": "",
    "minx": "-92.7222",
    "miny": "14.96",
    "maxx": "-92.4306",
    "maxy": "15.2833",
    "lat": "15.121666908264158",
    "lng": "-92.57638931274414"
  },
  {
    "id": "184",
    "clave_entidad": "7",
    "nombre_entidad": "Chiapas",
    "clave_municipio": "41",
    "nombre_municipio": "La Independencia",
    "clave_inegi": "07041",
    "nombre_inegi": "",
    "minx": "-92.0311",
    "miny": "16.0875",
    "maxx": "-91.5081",
    "maxy": "16.2986",
    "lat": "16.193055152893066",
    "lng": "-91.76958465576172"
  },
  {
    "id": "185",
    "clave_entidad": "7",
    "nombre_entidad": "Chiapas",
    "clave_municipio": "42",
    "nombre_municipio": "Ixhuatan",
    "clave_inegi": "07042",
    "nombre_inegi": "",
    "minx": "-93.0597",
    "miny": "17.2761",
    "maxx": "-92.9381",
    "maxy": "17.3369",
    "lat": "17.306528091430664",
    "lng": "-92.99888992309569"
  },
  {
    "id": "186",
    "clave_entidad": "7",
    "nombre_entidad": "Chiapas",
    "clave_municipio": "43",
    "nombre_municipio": "Ixtacomitan",
    "clave_inegi": "07043",
    "nombre_inegi": "",
    "minx": "-93.1469",
    "miny": "17.36",
    "maxx": "-93.0414",
    "maxy": "17.4836",
    "lat": "17.421806335449222",
    "lng": "-93.09416580200195"
  },
  {
    "id": "187",
    "clave_entidad": "7",
    "nombre_entidad": "Chiapas",
    "clave_municipio": "44",
    "nombre_municipio": "Ixtapa",
    "clave_inegi": "07044",
    "nombre_inegi": "",
    "minx": "-92.9814",
    "miny": "16.7086",
    "maxx": "-92.8186",
    "maxy": "16.9111",
    "lat": "16.809861183166504",
    "lng": "-92.90000152587889"
  },
  {
    "id": "188",
    "clave_entidad": "7",
    "nombre_entidad": "Chiapas",
    "clave_municipio": "45",
    "nombre_municipio": "Ixtapangajoya",
    "clave_inegi": "07045",
    "nombre_inegi": "",
    "minx": "-93.0322",
    "miny": "17.3814",
    "maxx": "-92.9428",
    "maxy": "17.5397",
    "lat": "17.46055603027344",
    "lng": "-92.98749923706056"
  },
  {
    "id": "189",
    "clave_entidad": "7",
    "nombre_entidad": "Chiapas",
    "clave_municipio": "46",
    "nombre_municipio": "Jiquipilas",
    "clave_inegi": "07046",
    "nombre_inegi": "",
    "minx": "-93.9214",
    "miny": "16.3314",
    "maxx": "-93.4867",
    "maxy": "16.8211",
    "lat": "16.576250076293945",
    "lng": "-93.7040252685547"
  },
  {
    "id": "190",
    "clave_entidad": "7",
    "nombre_entidad": "Chiapas",
    "clave_municipio": "47",
    "nombre_municipio": "Jitotol",
    "clave_inegi": "07047",
    "nombre_inegi": "",
    "minx": "-92.9547",
    "miny": "17.025",
    "maxx": "-92.7614",
    "maxy": "17.1528",
    "lat": "17.088889122009277",
    "lng": "-92.85805511474611"
  },
  {
    "id": "191",
    "clave_entidad": "7",
    "nombre_entidad": "Chiapas",
    "clave_municipio": "48",
    "nombre_municipio": "Juarez",
    "clave_inegi": "07048",
    "nombre_inegi": "",
    "minx": "-93.3686",
    "miny": "17.5722",
    "maxx": "-93.02",
    "maxy": "17.8333",
    "lat": "17.702777862548828",
    "lng": "-93.19430541992189"
  },
  {
    "id": "192",
    "clave_entidad": "7",
    "nombre_entidad": "Chiapas",
    "clave_municipio": "49",
    "nombre_municipio": "Larrainzar",
    "clave_inegi": "07049",
    "nombre_inegi": "",
    "minx": "-92.8489",
    "miny": "16.8603",
    "maxx": "-92.7003",
    "maxy": "16.9944",
    "lat": "16.927360534667972",
    "lng": "-92.77458572387695"
  },
  {
    "id": "193",
    "clave_entidad": "7",
    "nombre_entidad": "Chiapas",
    "clave_municipio": "50",
    "nombre_municipio": "La Libertad",
    "clave_inegi": "07050",
    "nombre_inegi": "",
    "minx": "-91.8514",
    "miny": "17.4811",
    "maxx": "-91.6547",
    "maxy": "17.7214",
    "lat": "17.601250648498535",
    "lng": "-91.75305557250977"
  },
  {
    "id": "194",
    "clave_entidad": "7",
    "nombre_entidad": "Chiapas",
    "clave_municipio": "51",
    "nombre_municipio": "Mapastepec",
    "clave_inegi": "07051",
    "nombre_inegi": "",
    "minx": "-93.1167",
    "miny": "15.2339",
    "maxx": "-92.7306",
    "maxy": "15.6353",
    "lat": "15.434583187103271",
    "lng": "-92.92361068725586"
  },
  {
    "id": "195",
    "clave_entidad": "7",
    "nombre_entidad": "Chiapas",
    "clave_municipio": "52",
    "nombre_municipio": "Las Margaritas",
    "clave_inegi": "07052",
    "nombre_inegi": "",
    "minx": "-92.1472",
    "miny": "16.0833",
    "maxx": "-91.2208",
    "maxy": "16.62",
    "lat": "16.351667404174805",
    "lng": "-91.68402862548828"
  },
  {
    "id": "196",
    "clave_entidad": "7",
    "nombre_entidad": "Chiapas",
    "clave_municipio": "53",
    "nombre_municipio": "Mazapa de Madero",
    "clave_inegi": "07053",
    "nombre_inegi": "",
    "minx": "-92.2333",
    "miny": "15.2628",
    "maxx": "-92.1325",
    "maxy": "15.4533",
    "lat": "15.358055114746094",
    "lng": "-92.18291473388672"
  },
  {
    "id": "197",
    "clave_entidad": "7",
    "nombre_entidad": "Chiapas",
    "clave_municipio": "54",
    "nombre_municipio": "Mazatan",
    "clave_inegi": "07054",
    "nombre_inegi": "",
    "minx": "-92.6233",
    "miny": "14.7611",
    "maxx": "-92.3881",
    "maxy": "14.955",
    "lat": "14.858055591583252",
    "lng": "-92.50569534301758"
  },
  {
    "id": "198",
    "clave_entidad": "7",
    "nombre_entidad": "Chiapas",
    "clave_municipio": "55",
    "nombre_municipio": "Metapa",
    "clave_inegi": "07055",
    "nombre_inegi": "",
    "minx": "-92.2108",
    "miny": "14.8056",
    "maxx": "-92.1878",
    "maxy": "14.8461",
    "lat": "14.825833320617678",
    "lng": "-92.19930267333984"
  },
  {
    "id": "199",
    "clave_entidad": "7",
    "nombre_entidad": "Chiapas",
    "clave_municipio": "56",
    "nombre_municipio": "Mitontic",
    "clave_inegi": "07056",
    "nombre_inegi": "",
    "minx": "-92.6358",
    "miny": "16.8628",
    "maxx": "-92.5261",
    "maxy": "16.89",
    "lat": "16.876388549804688",
    "lng": "-92.58097076416016"
  },
  {
    "id": "200",
    "clave_entidad": "7",
    "nombre_entidad": "Chiapas",
    "clave_municipio": "57",
    "nombre_municipio": "Motozintla",
    "clave_inegi": "07057",
    "nombre_inegi": "",
    "minx": "-92.4789",
    "miny": "15.1744",
    "maxx": "-92.1964",
    "maxy": "15.425",
    "lat": "15.299722194671629",
    "lng": "-92.33763885498047"
  },
  {
    "id": "201",
    "clave_entidad": "7",
    "nombre_entidad": "Chiapas",
    "clave_municipio": "58",
    "nombre_municipio": "Nicolas Ruiz",
    "clave_inegi": "07058",
    "nombre_inegi": "",
    "minx": "-92.6175",
    "miny": "16.4372",
    "maxx": "-92.5847",
    "maxy": "16.4556",
    "lat": "16.446388244628906",
    "lng": "-92.60111236572267"
  },
  {
    "id": "202",
    "clave_entidad": "7",
    "nombre_entidad": "Chiapas",
    "clave_municipio": "59",
    "nombre_municipio": "Ocosingo",
    "clave_inegi": "07059",
    "nombre_inegi": "",
    "minx": "-92.3275",
    "miny": "16.0783",
    "maxx": "-90.7008",
    "maxy": "17.1964",
    "lat": "16.63736057281494",
    "lng": "-91.51416778564452"
  },
  {
    "id": "203",
    "clave_entidad": "7",
    "nombre_entidad": "Chiapas",
    "clave_municipio": "60",
    "nombre_municipio": "Ocotepec",
    "clave_inegi": "07060",
    "nombre_inegi": "",
    "minx": "-93.2128",
    "miny": "17.1875",
    "maxx": "-93.1408",
    "maxy": "17.2603",
    "lat": "17.223889350891113",
    "lng": "-93.1768035888672"
  },
  {
    "id": "204",
    "clave_entidad": "7",
    "nombre_entidad": "Chiapas",
    "clave_municipio": "61",
    "nombre_municipio": "Ocozocoautla de Espinosa",
    "clave_inegi": "07061",
    "nombre_inegi": "",
    "minx": "-93.86",
    "miny": "16.4347",
    "maxx": "-93.2283",
    "maxy": "17.1481",
    "lat": "16.791389465332028",
    "lng": "-93.54416656494139"
  },
  {
    "id": "205",
    "clave_entidad": "7",
    "nombre_entidad": "Chiapas",
    "clave_municipio": "62",
    "nombre_municipio": "Ostuacan",
    "clave_inegi": "07062",
    "nombre_inegi": "",
    "minx": "-93.5431",
    "miny": "17.3028",
    "maxx": "-93.2922",
    "maxy": "17.5675",
    "lat": "17.435138702392578",
    "lng": "-93.41763687133789"
  },
  {
    "id": "206",
    "clave_entidad": "7",
    "nombre_entidad": "Chiapas",
    "clave_municipio": "63",
    "nombre_municipio": "Osumacinta",
    "clave_inegi": "07063",
    "nombre_inegi": "",
    "minx": "-93.1417",
    "miny": "16.8536",
    "maxx": "-93.0278",
    "maxy": "16.94",
    "lat": "16.89680576324463",
    "lng": "-93.08472442626955"
  },
  {
    "id": "207",
    "clave_entidad": "7",
    "nombre_entidad": "Chiapas",
    "clave_municipio": "64",
    "nombre_municipio": "Oxchuc",
    "clave_inegi": "07064",
    "nombre_inegi": "",
    "minx": "-92.4461",
    "miny": "16.7075",
    "maxx": "-92.0767",
    "maxy": "16.895",
    "lat": "16.801250457763672",
    "lng": "-92.26139068603517"
  },
  {
    "id": "208",
    "clave_entidad": "7",
    "nombre_entidad": "Chiapas",
    "clave_municipio": "65",
    "nombre_municipio": "Palenque",
    "clave_inegi": "07065",
    "nombre_inegi": "",
    "minx": "-92.3442",
    "miny": "17.0853",
    "maxx": "-91.2625",
    "maxy": "17.8078",
    "lat": "17.446527481079098",
    "lng": "-91.80333328247069"
  },
  {
    "id": "209",
    "clave_entidad": "7",
    "nombre_entidad": "Chiapas",
    "clave_municipio": "66",
    "nombre_municipio": "Pantelho",
    "clave_inegi": "07066",
    "nombre_inegi": "",
    "minx": "-92.5261",
    "miny": "16.9828",
    "maxx": "-92.3867",
    "maxy": "17.1239",
    "lat": "17.0533332824707",
    "lng": "-92.45638656616211"
  },
  {
    "id": "210",
    "clave_entidad": "7",
    "nombre_entidad": "Chiapas",
    "clave_municipio": "67",
    "nombre_municipio": "Pantepec",
    "clave_inegi": "07067",
    "nombre_inegi": "",
    "minx": "-93.0986",
    "miny": "17.1297",
    "maxx": "-92.9786",
    "maxy": "17.2556",
    "lat": "17.192639350891113",
    "lng": "-93.03861236572267"
  },
  {
    "id": "211",
    "clave_entidad": "7",
    "nombre_entidad": "Chiapas",
    "clave_municipio": "68",
    "nombre_municipio": "Pichucalco",
    "clave_inegi": "07068",
    "nombre_inegi": "",
    "minx": "-93.3992",
    "miny": "17.4117",
    "maxx": "-93.0356",
    "maxy": "17.6847",
    "lat": "17.548194885253906",
    "lng": "-93.21736145019533"
  },
  {
    "id": "212",
    "clave_entidad": "7",
    "nombre_entidad": "Chiapas",
    "clave_municipio": "69",
    "nombre_municipio": "Pijijiapan",
    "clave_inegi": "07069",
    "nombre_inegi": "",
    "minx": "-93.4758",
    "miny": "15.4172",
    "maxx": "-92.9378",
    "maxy": "15.8475",
    "lat": "15.632360935211182",
    "lng": "-93.20680236816405"
  },
  {
    "id": "213",
    "clave_entidad": "7",
    "nombre_entidad": "Chiapas",
    "clave_municipio": "70",
    "nombre_municipio": "El Porvenir",
    "clave_inegi": "07070",
    "nombre_inegi": "",
    "minx": "-92.3275",
    "miny": "15.3978",
    "maxx": "-92.2111",
    "maxy": "15.4622",
    "lat": "15.429999828338623",
    "lng": "-92.26930618286133"
  },
  {
    "id": "214",
    "clave_entidad": "7",
    "nombre_entidad": "Chiapas",
    "clave_municipio": "71",
    "nombre_municipio": "Villa Comaltitlan",
    "clave_inegi": "07071",
    "nombre_inegi": "",
    "minx": "-92.7231",
    "miny": "15.0425",
    "maxx": "-92.4903",
    "maxy": "15.3283",
    "lat": "15.18541622161865",
    "lng": "-92.60666656494139"
  },
  {
    "id": "215",
    "clave_entidad": "7",
    "nombre_entidad": "Chiapas",
    "clave_municipio": "72",
    "nombre_municipio": "Pueblo Nuevo Solistahuacan",
    "clave_inegi": "07072",
    "nombre_inegi": "",
    "minx": "-92.9617",
    "miny": "17.1431",
    "maxx": "-92.7828",
    "maxy": "17.3042",
    "lat": "17.223610877990723",
    "lng": "-92.87222290039062"
  },
  {
    "id": "216",
    "clave_entidad": "7",
    "nombre_entidad": "Chiapas",
    "clave_municipio": "73",
    "nombre_municipio": "Rayon",
    "clave_inegi": "07073",
    "nombre_inegi": "",
    "minx": "-93.0325",
    "miny": "17.14",
    "maxx": "-92.9589",
    "maxy": "17.2347",
    "lat": "17.187360763549805",
    "lng": "-92.9956932067871"
  },
  {
    "id": "217",
    "clave_entidad": "7",
    "nombre_entidad": "Chiapas",
    "clave_municipio": "74",
    "nombre_municipio": "Reforma",
    "clave_inegi": "07074",
    "nombre_inegi": "",
    "minx": "-93.3411",
    "miny": "17.7792",
    "maxx": "-93.1175",
    "maxy": "17.9769",
    "lat": "17.878055572509766",
    "lng": "-93.22930526733398"
  },
  {
    "id": "218",
    "clave_entidad": "7",
    "nombre_entidad": "Chiapas",
    "clave_municipio": "75",
    "nombre_municipio": "Las Rosas",
    "clave_inegi": "07075",
    "nombre_inegi": "",
    "minx": "-92.4478",
    "miny": "16.2819",
    "maxx": "-92.2822",
    "maxy": "16.4447",
    "lat": "16.363333702087402",
    "lng": "-92.36499786376952"
  },
  {
    "id": "219",
    "clave_entidad": "7",
    "nombre_entidad": "Chiapas",
    "clave_municipio": "76",
    "nombre_municipio": "Sabanilla",
    "clave_inegi": "07076",
    "nombre_inegi": "",
    "minx": "-92.7019",
    "miny": "17.2175",
    "maxx": "-92.5125",
    "maxy": "17.4225",
    "lat": "17.320000648498535",
    "lng": "-92.60721969604494"
  },
  {
    "id": "220",
    "clave_entidad": "7",
    "nombre_entidad": "Chiapas",
    "clave_municipio": "77",
    "nombre_municipio": "Salto de Agua",
    "clave_inegi": "07077",
    "nombre_inegi": "",
    "minx": "-92.4758",
    "miny": "17.2236",
    "maxx": "-91.9306",
    "maxy": "17.6461",
    "lat": "17.434861183166504",
    "lng": "-92.20319366455078"
  },
  {
    "id": "221",
    "clave_entidad": "7",
    "nombre_entidad": "Chiapas",
    "clave_municipio": "78",
    "nombre_municipio": "San Cristobal de las Casas",
    "clave_inegi": "07078",
    "nombre_inegi": "",
    "minx": "-92.7056",
    "miny": "16.5569",
    "maxx": "-92.3606",
    "maxy": "16.7858",
    "lat": "16.671388626098633",
    "lng": "-92.53305816650389"
  },
  {
    "id": "222",
    "clave_entidad": "7",
    "nombre_entidad": "Chiapas",
    "clave_municipio": "79",
    "nombre_municipio": "San Fernando",
    "clave_inegi": "07079",
    "nombre_inegi": "",
    "minx": "-93.2997",
    "miny": "16.8064",
    "maxx": "-93.1206",
    "maxy": "17.0008",
    "lat": "16.903611183166504",
    "lng": "-93.21013641357423"
  },
  {
    "id": "223",
    "clave_entidad": "7",
    "nombre_entidad": "Chiapas",
    "clave_municipio": "80",
    "nombre_municipio": "Siltepec",
    "clave_inegi": "07080",
    "nombre_inegi": "",
    "minx": "-92.6608",
    "miny": "15.4411",
    "maxx": "-92.2428",
    "maxy": "15.6867",
    "lat": "15.563889026641844",
    "lng": "-92.4518051147461"
  },
  {
    "id": "224",
    "clave_entidad": "7",
    "nombre_entidad": "Chiapas",
    "clave_municipio": "81",
    "nombre_municipio": "Simojovel",
    "clave_inegi": "07081",
    "nombre_inegi": "",
    "minx": "-92.7964",
    "miny": "17.0756",
    "maxx": "-92.4831",
    "maxy": "17.2194",
    "lat": "17.147500038146973",
    "lng": "-92.63972091674805"
  },
  {
    "id": "225",
    "clave_entidad": "7",
    "nombre_entidad": "Chiapas",
    "clave_municipio": "82",
    "nombre_municipio": "Sitala",
    "clave_inegi": "07082",
    "nombre_inegi": "",
    "minx": "-92.4083",
    "miny": "17.0036",
    "maxx": "-92.29",
    "maxy": "17.0858",
    "lat": "17.04472160339356",
    "lng": "-92.34916687011719"
  },
  {
    "id": "226",
    "clave_entidad": "7",
    "nombre_entidad": "Chiapas",
    "clave_municipio": "83",
    "nombre_municipio": "Socoltenango",
    "clave_inegi": "07083",
    "nombre_inegi": "",
    "minx": "-92.5069",
    "miny": "15.9264",
    "maxx": "-92.1975",
    "maxy": "16.2681",
    "lat": "16.097221851348877",
    "lng": "-92.35222244262695"
  },
  {
    "id": "227",
    "clave_entidad": "7",
    "nombre_entidad": "Chiapas",
    "clave_municipio": "84",
    "nombre_municipio": "Solosuchiapa",
    "clave_inegi": "07084",
    "nombre_inegi": "",
    "minx": "-93.0472",
    "miny": "17.315",
    "maxx": "-92.9497",
    "maxy": "17.4814",
    "lat": "17.398194313049316",
    "lng": "-92.99847412109374"
  },
  {
    "id": "228",
    "clave_entidad": "7",
    "nombre_entidad": "Chiapas",
    "clave_municipio": "85",
    "nombre_municipio": "Soyalo",
    "clave_inegi": "07085",
    "nombre_inegi": "",
    "minx": "-93.0389",
    "miny": "16.8778",
    "maxx": "-92.9092",
    "maxy": "16.9678",
    "lat": "16.92277717590332",
    "lng": "-92.97402572631836"
  },
  {
    "id": "229",
    "clave_entidad": "7",
    "nombre_entidad": "Chiapas",
    "clave_municipio": "86",
    "nombre_municipio": "Suchiapa",
    "clave_inegi": "07086",
    "nombre_inegi": "",
    "minx": "-93.2175",
    "miny": "16.4992",
    "maxx": "-93.0464",
    "maxy": "16.6719",
    "lat": "16.58555507659912",
    "lng": "-93.13194274902345"
  },
  {
    "id": "230",
    "clave_entidad": "7",
    "nombre_entidad": "Chiapas",
    "clave_municipio": "87",
    "nombre_municipio": "Suchiate",
    "clave_inegi": "07087",
    "nombre_inegi": "",
    "minx": "-92.3153",
    "miny": "14.5356",
    "maxx": "-92.1497",
    "maxy": "14.7236",
    "lat": "14.629583358764648",
    "lng": "-92.23249816894531"
  },
  {
    "id": "231",
    "clave_entidad": "7",
    "nombre_entidad": "Chiapas",
    "clave_municipio": "88",
    "nombre_municipio": "Sunuapa",
    "clave_inegi": "07088",
    "nombre_inegi": "",
    "minx": "-93.2722",
    "miny": "17.4517",
    "maxx": "-93.22",
    "maxy": "17.5169",
    "lat": "17.484305381774902",
    "lng": "-93.24611282348633"
  },
  {
    "id": "232",
    "clave_entidad": "7",
    "nombre_entidad": "Chiapas",
    "clave_municipio": "89",
    "nombre_municipio": "Tapachula",
    "clave_inegi": "07089",
    "nombre_inegi": "",
    "minx": "-92.4581",
    "miny": "14.6233",
    "maxx": "-92.1675",
    "maxy": "15.2172",
    "lat": "14.920277595520021",
    "lng": "-92.31277847290038"
  },
  {
    "id": "233",
    "clave_entidad": "7",
    "nombre_entidad": "Chiapas",
    "clave_municipio": "90",
    "nombre_municipio": "Tapalapa",
    "clave_inegi": "07090",
    "nombre_inegi": "",
    "minx": "-93.1397",
    "miny": "17.1658",
    "maxx": "-93.0831",
    "maxy": "17.2642",
    "lat": "17.214999198913574",
    "lng": "-93.11138916015625"
  },
  {
    "id": "234",
    "clave_entidad": "7",
    "nombre_entidad": "Chiapas",
    "clave_municipio": "91",
    "nombre_municipio": "Tapilula",
    "clave_inegi": "07091",
    "nombre_inegi": "",
    "minx": "-93.0469",
    "miny": "17.235",
    "maxx": "-92.9728",
    "maxy": "17.2733",
    "lat": "17.25416660308838",
    "lng": "-93.00986099243164"
  },
  {
    "id": "235",
    "clave_entidad": "7",
    "nombre_entidad": "Chiapas",
    "clave_municipio": "92",
    "nombre_municipio": "Tecpatan",
    "clave_inegi": "07092",
    "nombre_inegi": "",
    "minx": "-93.8317",
    "miny": "16.9919",
    "maxx": "-93.2817",
    "maxy": "17.3806",
    "lat": "17.186250686645508",
    "lng": "-93.55666732788086"
  },
  {
    "id": "236",
    "clave_entidad": "7",
    "nombre_entidad": "Chiapas",
    "clave_municipio": "93",
    "nombre_municipio": "Tenejapa",
    "clave_inegi": "07093",
    "nombre_inegi": "",
    "minx": "-92.545",
    "miny": "16.7706",
    "maxx": "-92.3714",
    "maxy": "16.9208",
    "lat": "16.845694541931152",
    "lng": "-92.45819473266603"
  },
  {
    "id": "237",
    "clave_entidad": "7",
    "nombre_entidad": "Chiapas",
    "clave_municipio": "94",
    "nombre_municipio": "Teopisca",
    "clave_inegi": "07094",
    "nombre_inegi": "",
    "minx": "-92.5822",
    "miny": "16.465",
    "maxx": "-92.4303",
    "maxy": "16.6339",
    "lat": "16.549444198608402",
    "lng": "-92.5062484741211"
  },
  {
    "id": "238",
    "clave_entidad": "7",
    "nombre_entidad": "Chiapas",
    "clave_municipio": "96",
    "nombre_municipio": "Tila",
    "clave_inegi": "07096",
    "nombre_inegi": "",
    "minx": "-92.6239",
    "miny": "17.1956",
    "maxx": "-92.3442",
    "maxy": "17.5656",
    "lat": "17.380555152893066",
    "lng": "-92.48402786254883"
  },
  {
    "id": "239",
    "clave_entidad": "7",
    "nombre_entidad": "Chiapas",
    "clave_municipio": "97",
    "nombre_municipio": "Tonala",
    "clave_inegi": "07097",
    "nombre_inegi": "",
    "minx": "-93.9217",
    "miny": "15.72",
    "maxx": "-93.3942",
    "maxy": "16.2139",
    "lat": "15.966944217681885",
    "lng": "-93.65791702270509"
  },
  {
    "id": "240",
    "clave_entidad": "7",
    "nombre_entidad": "Chiapas",
    "clave_municipio": "98",
    "nombre_municipio": "Totolapa",
    "clave_inegi": "07098",
    "nombre_inegi": "",
    "minx": "-92.7528",
    "miny": "16.4567",
    "maxx": "-92.5828",
    "maxy": "16.5667",
    "lat": "16.511667251586914",
    "lng": "-92.66777801513673"
  },
  {
    "id": "241",
    "clave_entidad": "7",
    "nombre_entidad": "Chiapas",
    "clave_municipio": "99",
    "nombre_municipio": "La Trinitaria",
    "clave_inegi": "07099",
    "nombre_inegi": "",
    "minx": "-92.19",
    "miny": "15.775",
    "maxx": "-91.3983",
    "maxy": "16.1731",
    "lat": "15.974027633666992",
    "lng": "-91.79416656494139"
  },
  {
    "id": "242",
    "clave_entidad": "7",
    "nombre_entidad": "Chiapas",
    "clave_municipio": "100",
    "nombre_municipio": "Tumbala",
    "clave_inegi": "07100",
    "nombre_inegi": "",
    "minx": "-92.3864",
    "miny": "17.2258",
    "maxx": "-92.1006",
    "maxy": "17.3947",
    "lat": "17.31027793884277",
    "lng": "-92.24347305297852"
  },
  {
    "id": "243",
    "clave_entidad": "7",
    "nombre_entidad": "Chiapas",
    "clave_municipio": "101",
    "nombre_municipio": "Tuxtla Gutierrez",
    "clave_inegi": "07101",
    "nombre_inegi": "",
    "minx": "-93.2364",
    "miny": "16.6583",
    "maxx": "-93.0394",
    "maxy": "16.8394",
    "lat": "16.748888969421387",
    "lng": "-93.13791656494139"
  },
  {
    "id": "244",
    "clave_entidad": "7",
    "nombre_entidad": "Chiapas",
    "clave_municipio": "102",
    "nombre_municipio": "Tuxtla Chico",
    "clave_inegi": "07102",
    "nombre_inegi": "",
    "minx": "-92.25",
    "miny": "14.805",
    "maxx": "-92.1472",
    "maxy": "14.9864",
    "lat": "14.895694732666016",
    "lng": "-92.19861221313477"
  },
  {
    "id": "245",
    "clave_entidad": "7",
    "nombre_entidad": "Chiapas",
    "clave_municipio": "103",
    "nombre_municipio": "Tuzantan",
    "clave_inegi": "07103",
    "nombre_inegi": "",
    "minx": "-92.4711",
    "miny": "15.0514",
    "maxx": "-92.33",
    "maxy": "15.2236",
    "lat": "15.137499809265135",
    "lng": "-92.40055465698242"
  },
  {
    "id": "246",
    "clave_entidad": "7",
    "nombre_entidad": "Chiapas",
    "clave_municipio": "104",
    "nombre_municipio": "Tzimol",
    "clave_inegi": "07104",
    "nombre_inegi": "",
    "minx": "-92.3217",
    "miny": "15.95",
    "maxx": "-92.1778",
    "maxy": "16.2675",
    "lat": "16.108749866485596",
    "lng": "-92.24972152709962"
  },
  {
    "id": "247",
    "clave_entidad": "7",
    "nombre_entidad": "Chiapas",
    "clave_municipio": "105",
    "nombre_municipio": "Union Juarez",
    "clave_inegi": "07105",
    "nombre_inegi": "",
    "minx": "-92.1417",
    "miny": "15.0242",
    "maxx": "-92.07",
    "maxy": "15.0933",
    "lat": "15.05875015258789",
    "lng": "-92.10583496093749"
  },
  {
    "id": "248",
    "clave_entidad": "7",
    "nombre_entidad": "Chiapas",
    "clave_municipio": "106",
    "nombre_municipio": "Venustiano Carranza",
    "clave_inegi": "07106",
    "nombre_inegi": "",
    "minx": "-92.8639",
    "miny": "16.1672",
    "maxx": "-92.3611",
    "maxy": "16.4811",
    "lat": "16.324167251586914",
    "lng": "-92.61250305175781"
  },
  {
    "id": "249",
    "clave_entidad": "7",
    "nombre_entidad": "Chiapas",
    "clave_municipio": "107",
    "nombre_municipio": "Villa Corzo",
    "clave_inegi": "07107",
    "nombre_inegi": "",
    "minx": "-93.5917",
    "miny": "15.8575",
    "maxx": "-92.8506",
    "maxy": "16.4083",
    "lat": "16.13291645050049",
    "lng": "-93.22111129760742"
  },
  {
    "id": "250",
    "clave_entidad": "7",
    "nombre_entidad": "Chiapas",
    "clave_municipio": "108",
    "nombre_municipio": "Villaflores",
    "clave_inegi": "07108",
    "nombre_inegi": "",
    "minx": "-93.7172",
    "miny": "16.1703",
    "maxx": "-93.0642",
    "maxy": "16.4997",
    "lat": "16.335000038146973",
    "lng": "-93.39069366455078"
  },
  {
    "id": "251",
    "clave_entidad": "7",
    "nombre_entidad": "Chiapas",
    "clave_municipio": "109",
    "nombre_municipio": "Yajalon",
    "clave_inegi": "07109",
    "nombre_inegi": "",
    "minx": "-92.4294",
    "miny": "17.1036",
    "maxx": "-92.2228",
    "maxy": "17.2517",
    "lat": "17.177639007568363",
    "lng": "-92.32611083984375"
  },
  {
    "id": "252",
    "clave_entidad": "7",
    "nombre_entidad": "Chiapas",
    "clave_municipio": "110",
    "nombre_municipio": "San Lucas",
    "clave_inegi": "07110",
    "nombre_inegi": "",
    "minx": "-92.7414",
    "miny": "16.5747",
    "maxx": "-92.625",
    "maxy": "16.6472",
    "lat": "16.61097240447998",
    "lng": "-92.6831932067871"
  },
  {
    "id": "253",
    "clave_entidad": "7",
    "nombre_entidad": "Chiapas",
    "clave_municipio": "111",
    "nombre_municipio": "Zinacantan",
    "clave_inegi": "07111",
    "nombre_inegi": "",
    "minx": "-92.8517",
    "miny": "16.6475",
    "maxx": "-92.6944",
    "maxy": "16.7758",
    "lat": "16.711666107177734",
    "lng": "-92.77305603027344"
  },
  {
    "id": "254",
    "clave_entidad": "7",
    "nombre_entidad": "Chiapas",
    "clave_municipio": "112",
    "nombre_municipio": "San Juan Cancuc",
    "clave_inegi": "07112",
    "nombre_inegi": "",
    "minx": "-92.4369",
    "miny": "16.8622",
    "maxx": "-92.3239",
    "maxy": "16.9964",
    "lat": "16.92930603027344",
    "lng": "-92.3804168701172"
  },
  {
    "id": "255",
    "clave_entidad": "7",
    "nombre_entidad": "Chiapas",
    "clave_municipio": "113",
    "nombre_municipio": "Aldama",
    "clave_inegi": "07113",
    "nombre_inegi": "",
    "minx": "-92.7142",
    "miny": "16.8958",
    "maxx": "-92.6653",
    "maxy": "16.9672",
    "lat": "16.931528091430664",
    "lng": "-92.68972015380861"
  },
  {
    "id": "256",
    "clave_entidad": "7",
    "nombre_entidad": "Chiapas",
    "clave_municipio": "114",
    "nombre_municipio": "Benemerito de las Americas",
    "clave_inegi": "07114",
    "nombre_inegi": "",
    "minx": "-90.7733",
    "miny": "16.0825",
    "maxx": "-90.4153",
    "maxy": "16.5997",
    "lat": "16.341111183166504",
    "lng": "-90.59430313110352"
  },
  {
    "id": "257",
    "clave_entidad": "7",
    "nombre_entidad": "Chiapas",
    "clave_municipio": "115",
    "nombre_municipio": "Maravilla Tenejapa",
    "clave_inegi": "07115",
    "nombre_inegi": "",
    "minx": "-91.3628",
    "miny": "16.0808",
    "maxx": "-91.145",
    "maxy": "16.3414",
    "lat": "16.211111068725586",
    "lng": "-91.25388717651367"
  },
  {
    "id": "258",
    "clave_entidad": "7",
    "nombre_entidad": "Chiapas",
    "clave_municipio": "116",
    "nombre_municipio": "Marques de Comillas",
    "clave_inegi": "07116",
    "nombre_inegi": "",
    "minx": "-90.9242",
    "miny": "16.0792",
    "maxx": "-90.5614",
    "maxy": "16.4247",
    "lat": "16.251944541931152",
    "lng": "-90.74277496337889"
  },
  {
    "id": "259",
    "clave_entidad": "7",
    "nombre_entidad": "Chiapas",
    "clave_municipio": "117",
    "nombre_municipio": "Montecristo de Guerrero",
    "clave_inegi": "07117",
    "nombre_inegi": "",
    "minx": "-92.7417",
    "miny": "15.6158",
    "maxx": "-92.5792",
    "maxy": "15.7464",
    "lat": "15.681110858917235",
    "lng": "-92.66041946411133"
  },
  {
    "id": "260",
    "clave_entidad": "7",
    "nombre_entidad": "Chiapas",
    "clave_municipio": "118",
    "nombre_municipio": "San Andres Duraznal",
    "clave_inegi": "07118",
    "nombre_inegi": "",
    "minx": "-92.8292",
    "miny": "17.1222",
    "maxx": "-92.7694",
    "maxy": "17.2008",
    "lat": "17.16152858734131",
    "lng": "-92.79930877685547"
  },
  {
    "id": "261",
    "clave_entidad": "7",
    "nombre_entidad": "Chiapas",
    "clave_municipio": "119",
    "nombre_municipio": "Santiago el Pinar",
    "clave_inegi": "07119",
    "nombre_inegi": "",
    "minx": "-92.7347",
    "miny": "16.9308",
    "maxx": "-92.7097",
    "maxy": "16.9683",
    "lat": "16.949584007263184",
    "lng": "-92.72222518920898"
  },
  {
    "id": "8",
    "clave_entidad": "8",
    "nombre_entidad": "Chihuahua",
    "clave_municipio": "0",
    "nombre_municipio": "todo el estado",
    "clave_inegi": "08000",
    "nombre_inegi": "",
    "minx": "-109.066",
    "miny": "25.6056",
    "maxx": "-103.399",
    "maxy": "31.7828",
    "lat": "28.694167137146",
    "lng": "-106.23278045654297"
  },
  {
    "id": "262",
    "clave_entidad": "8",
    "nombre_entidad": "Chihuahua",
    "clave_municipio": "1",
    "nombre_municipio": "Ahumada",
    "clave_inegi": "08001",
    "nombre_inegi": "",
    "minx": "-107.124",
    "miny": "29.7381",
    "maxx": "-105.602",
    "maxy": "31.1311",
    "lat": "30.434583663940426",
    "lng": "-106.36291503906251"
  },
  {
    "id": "263",
    "clave_entidad": "8",
    "nombre_entidad": "Chihuahua",
    "clave_municipio": "2",
    "nombre_municipio": "Aldama",
    "clave_inegi": "08002",
    "nombre_inegi": "",
    "minx": "-106.212",
    "miny": "28.5683",
    "maxx": "-104.789",
    "maxy": "29.6347",
    "lat": "29.101527214050297",
    "lng": "-105.50014114379884"
  },
  {
    "id": "264",
    "clave_entidad": "8",
    "nombre_entidad": "Chihuahua",
    "clave_municipio": "3",
    "nombre_municipio": "Allende",
    "clave_inegi": "08003",
    "nombre_inegi": "",
    "minx": "-105.556",
    "miny": "26.6783",
    "maxx": "-105.037",
    "maxy": "27.4006",
    "lat": "27.039443969726562",
    "lng": "-105.29666900634764"
  },
  {
    "id": "265",
    "clave_entidad": "8",
    "nombre_entidad": "Chihuahua",
    "clave_municipio": "4",
    "nombre_municipio": "Aquiles Serdan",
    "clave_inegi": "08004",
    "nombre_inegi": "",
    "minx": "-105.957",
    "miny": "28.4939",
    "maxx": "-105.729",
    "maxy": "28.6467",
    "lat": "28.57027816772461",
    "lng": "-105.8429183959961"
  },
  {
    "id": "266",
    "clave_entidad": "8",
    "nombre_entidad": "Chihuahua",
    "clave_municipio": "5",
    "nombre_municipio": "Ascension",
    "clave_inegi": "08005",
    "nombre_inegi": "",
    "minx": "-108.202",
    "miny": "30.7611",
    "maxx": "-106.743",
    "maxy": "31.7828",
    "lat": "31.27194404602051",
    "lng": "-107.47249984741211"
  },
  {
    "id": "267",
    "clave_entidad": "8",
    "nombre_entidad": "Chihuahua",
    "clave_municipio": "6",
    "nombre_municipio": "Bachiniva",
    "clave_inegi": "08006",
    "nombre_inegi": "",
    "minx": "-107.432",
    "miny": "28.6614",
    "maxx": "-107.129",
    "maxy": "29.0561",
    "lat": "28.858749389648438",
    "lng": "-107.28027725219727"
  },
  {
    "id": "268",
    "clave_entidad": "8",
    "nombre_entidad": "Chihuahua",
    "clave_municipio": "7",
    "nombre_municipio": "Balleza",
    "clave_inegi": "08007",
    "nombre_inegi": "",
    "minx": "-106.919",
    "miny": "26.2567",
    "maxx": "-106.093",
    "maxy": "27.1875",
    "lat": "26.72208309173584",
    "lng": "-106.50583267211914"
  },
  {
    "id": "269",
    "clave_entidad": "8",
    "nombre_entidad": "Chihuahua",
    "clave_municipio": "8",
    "nombre_municipio": "Batopilas",
    "clave_inegi": "08008",
    "nombre_inegi": "",
    "minx": "-108.018",
    "miny": "26.5989",
    "maxx": "-107.37",
    "maxy": "27.2408",
    "lat": "26.91986083984375",
    "lng": "-107.69416809082031"
  },
  {
    "id": "270",
    "clave_entidad": "8",
    "nombre_entidad": "Chihuahua",
    "clave_municipio": "9",
    "nombre_municipio": "Bocoyna",
    "clave_inegi": "08009",
    "nombre_inegi": "",
    "minx": "-107.942",
    "miny": "27.5636",
    "maxx": "-107.228",
    "maxy": "28.0975",
    "lat": "27.83055591583252",
    "lng": "-107.5848617553711"
  },
  {
    "id": "271",
    "clave_entidad": "8",
    "nombre_entidad": "Chihuahua",
    "clave_municipio": "10",
    "nombre_municipio": "Buenaventura",
    "clave_inegi": "08010",
    "nombre_inegi": "",
    "minx": "-107.643",
    "miny": "29.5414",
    "maxx": "-106.64",
    "maxy": "30.8147",
    "lat": "30.17805576324463",
    "lng": "-107.14166641235352"
  },
  {
    "id": "272",
    "clave_entidad": "8",
    "nombre_entidad": "Chihuahua",
    "clave_municipio": "11",
    "nombre_municipio": "Camargo",
    "clave_inegi": "08011",
    "nombre_inegi": "",
    "minx": "-105.278",
    "miny": "27.3822",
    "maxx": "-103.705",
    "maxy": "28.7489",
    "lat": "28.065555572509766",
    "lng": "-104.49180603027342"
  },
  {
    "id": "273",
    "clave_entidad": "8",
    "nombre_entidad": "Chihuahua",
    "clave_municipio": "12",
    "nombre_municipio": "Carichi",
    "clave_inegi": "08012",
    "nombre_inegi": "",
    "minx": "-107.437",
    "miny": "27.43",
    "maxx": "-106.741",
    "maxy": "28.1669",
    "lat": "27.79847240447998",
    "lng": "-107.08889007568361"
  },
  {
    "id": "274",
    "clave_entidad": "8",
    "nombre_entidad": "Chihuahua",
    "clave_municipio": "13",
    "nombre_municipio": "Casas Grandes",
    "clave_inegi": "08013",
    "nombre_inegi": "",
    "minx": "-108.584",
    "miny": "29.7786",
    "maxx": "-107.924",
    "maxy": "30.6381",
    "lat": "30.208333015441895",
    "lng": "-108.25402450561523"
  },
  {
    "id": "275",
    "clave_entidad": "8",
    "nombre_entidad": "Chihuahua",
    "clave_municipio": "14",
    "nombre_municipio": "Coronado",
    "clave_inegi": "08014",
    "nombre_inegi": "",
    "minx": "-105.393",
    "miny": "26.4664",
    "maxx": "-104.809",
    "maxy": "26.8794",
    "lat": "26.67291641235352",
    "lng": "-105.10097122192383"
  },
  {
    "id": "276",
    "clave_entidad": "8",
    "nombre_entidad": "Chihuahua",
    "clave_municipio": "15",
    "nombre_municipio": "Coyame del Sotol",
    "clave_inegi": "08015",
    "nombre_inegi": "",
    "minx": "-105.866",
    "miny": "28.9692",
    "maxx": "-104.599",
    "maxy": "30.4483",
    "lat": "29.708749771118168",
    "lng": "-105.23263931274414"
  },
  {
    "id": "277",
    "clave_entidad": "8",
    "nombre_entidad": "Chihuahua",
    "clave_municipio": "16",
    "nombre_municipio": "La Cruz",
    "clave_inegi": "08016",
    "nombre_inegi": "",
    "minx": "-105.249",
    "miny": "27.78",
    "maxx": "-104.889",
    "maxy": "28.0336",
    "lat": "27.906805992126465",
    "lng": "-105.0687484741211"
  },
  {
    "id": "278",
    "clave_entidad": "8",
    "nombre_entidad": "Chihuahua",
    "clave_municipio": "17",
    "nombre_municipio": "Cuauhtemoc",
    "clave_inegi": "08017",
    "nombre_inegi": "",
    "minx": "-107.222",
    "miny": "28.3444",
    "maxx": "-106.572",
    "maxy": "29.1814",
    "lat": "28.762916564941403",
    "lng": "-106.89666366577148"
  },
  {
    "id": "279",
    "clave_entidad": "8",
    "nombre_entidad": "Chihuahua",
    "clave_municipio": "18",
    "nombre_municipio": "Cusihuiriachi",
    "clave_inegi": "08018",
    "nombre_inegi": "",
    "minx": "-107.218",
    "miny": "28.0903",
    "maxx": "-106.573",
    "maxy": "28.3758",
    "lat": "28.233056068420407",
    "lng": "-106.89541625976561"
  },
  {
    "id": "280",
    "clave_entidad": "8",
    "nombre_entidad": "Chihuahua",
    "clave_municipio": "19",
    "nombre_municipio": "Chihuahua",
    "clave_inegi": "08019",
    "nombre_inegi": "",
    "minx": "-106.603",
    "miny": "28.1147",
    "maxx": "-105.726",
    "maxy": "29.7706",
    "lat": "28.942638397216797",
    "lng": "-106.16430664062499"
  },
  {
    "id": "281",
    "clave_entidad": "8",
    "nombre_entidad": "Chihuahua",
    "clave_municipio": "20",
    "nombre_municipio": "Chinipas",
    "clave_inegi": "08020",
    "nombre_inegi": "",
    "minx": "-108.737",
    "miny": "27.0325",
    "maxx": "-108.287",
    "maxy": "27.7844",
    "lat": "27.408472061157223",
    "lng": "-108.51180267333984"
  },
  {
    "id": "282",
    "clave_entidad": "8",
    "nombre_entidad": "Chihuahua",
    "clave_municipio": "21",
    "nombre_municipio": "Delicias",
    "clave_inegi": "08021",
    "nombre_inegi": "",
    "minx": "-105.637",
    "miny": "28.0242",
    "maxx": "-105.353",
    "maxy": "28.2767",
    "lat": "28.150416374206547",
    "lng": "-105.49541473388672"
  },
  {
    "id": "283",
    "clave_entidad": "8",
    "nombre_entidad": "Chihuahua",
    "clave_municipio": "22",
    "nombre_municipio": "Dr. Belisario Dominguez",
    "clave_inegi": "08022",
    "nombre_inegi": "",
    "minx": "-106.543",
    "miny": "27.8064",
    "maxx": "-106.294",
    "maxy": "28.1964",
    "lat": "28.001388549804688",
    "lng": "-106.41847229003905"
  },
  {
    "id": "284",
    "clave_entidad": "8",
    "nombre_entidad": "Chihuahua",
    "clave_municipio": "23",
    "nombre_municipio": "Galeana",
    "clave_inegi": "08023",
    "nombre_inegi": "",
    "minx": "-107.945",
    "miny": "29.9622",
    "maxx": "-107.457",
    "maxy": "30.3769",
    "lat": "30.169583320617676",
    "lng": "-107.7012481689453"
  },
  {
    "id": "285",
    "clave_entidad": "8",
    "nombre_entidad": "Chihuahua",
    "clave_municipio": "24",
    "nombre_municipio": "Santa Isabel",
    "clave_inegi": "08024",
    "nombre_inegi": "",
    "minx": "-106.517",
    "miny": "28.1964",
    "maxx": "-106.227",
    "maxy": "28.4211",
    "lat": "28.30875015258789",
    "lng": "-106.37180709838867"
  },
  {
    "id": "286",
    "clave_entidad": "8",
    "nombre_entidad": "Chihuahua",
    "clave_municipio": "25",
    "nombre_municipio": "Gomez Farias",
    "clave_inegi": "08025",
    "nombre_inegi": "",
    "minx": "-107.902",
    "miny": "29.1703",
    "maxx": "-107.596",
    "maxy": "29.4781",
    "lat": "29.324167251586918",
    "lng": "-107.74874877929689"
  },
  {
    "id": "287",
    "clave_entidad": "8",
    "nombre_entidad": "Chihuahua",
    "clave_municipio": "26",
    "nombre_municipio": "Gran Morelos",
    "clave_inegi": "08026",
    "nombre_inegi": "",
    "minx": "-106.723",
    "miny": "28.2003",
    "maxx": "-106.45",
    "maxy": "28.4122",
    "lat": "28.30624961853027",
    "lng": "-106.58666610717773"
  },
  {
    "id": "288",
    "clave_entidad": "8",
    "nombre_entidad": "Chihuahua",
    "clave_municipio": "27",
    "nombre_municipio": "Guachochi",
    "clave_inegi": "08027",
    "nombre_inegi": "",
    "minx": "-107.754",
    "miny": "26.6497",
    "maxx": "-106.856",
    "maxy": "27.6697",
    "lat": "27.159722328186035",
    "lng": "-107.3050003051758"
  },
  {
    "id": "289",
    "clave_entidad": "8",
    "nombre_entidad": "Chihuahua",
    "clave_municipio": "28",
    "nombre_municipio": "Guadalupe",
    "clave_inegi": "08028",
    "nombre_inegi": "",
    "minx": "-106.282",
    "miny": "30.3703",
    "maxx": "-104.878",
    "maxy": "31.44",
    "lat": "30.90513896942139",
    "lng": "-105.57958602905272"
  },
  {
    "id": "290",
    "clave_entidad": "8",
    "nombre_entidad": "Chihuahua",
    "clave_municipio": "29",
    "nombre_municipio": "Guadalupe y Calvo",
    "clave_inegi": "08029",
    "nombre_inegi": "",
    "minx": "-107.867",
    "miny": "25.6056",
    "maxx": "-106.462",
    "maxy": "26.6753",
    "lat": "26.14041709899902",
    "lng": "-107.16430664062499"
  },
  {
    "id": "291",
    "clave_entidad": "8",
    "nombre_entidad": "Chihuahua",
    "clave_municipio": "30",
    "nombre_municipio": "Guazapares",
    "clave_inegi": "08030",
    "nombre_inegi": "",
    "minx": "-108.482",
    "miny": "27.0758",
    "maxx": "-108.037",
    "maxy": "27.6986",
    "lat": "27.387222290039062",
    "lng": "-108.25930404663086"
  },
  {
    "id": "292",
    "clave_entidad": "8",
    "nombre_entidad": "Chihuahua",
    "clave_municipio": "31",
    "nombre_municipio": "Guerrero",
    "clave_inegi": "08031",
    "nombre_inegi": "",
    "minx": "-108.07",
    "miny": "28.0233",
    "maxx": "-107.055",
    "maxy": "28.8953",
    "lat": "28.459304809570312",
    "lng": "-107.56263732910158"
  },
  {
    "id": "293",
    "clave_entidad": "8",
    "nombre_entidad": "Chihuahua",
    "clave_municipio": "32",
    "nombre_municipio": "Hidalgo del Parral",
    "clave_inegi": "08032",
    "nombre_inegi": "",
    "minx": "-105.946",
    "miny": "26.9028",
    "maxx": "-105.427",
    "maxy": "27.3389",
    "lat": "27.120833396911618",
    "lng": "-105.68652725219727"
  },
  {
    "id": "294",
    "clave_entidad": "8",
    "nombre_entidad": "Chihuahua",
    "clave_municipio": "33",
    "nombre_municipio": "Huejotitan",
    "clave_inegi": "08033",
    "nombre_inegi": "",
    "minx": "-106.219",
    "miny": "26.8836",
    "maxx": "-105.953",
    "maxy": "27.1744",
    "lat": "27.02902793884277",
    "lng": "-106.08610916137694"
  },
  {
    "id": "295",
    "clave_entidad": "8",
    "nombre_entidad": "Chihuahua",
    "clave_municipio": "34",
    "nombre_municipio": "Ignacio Zaragoza",
    "clave_inegi": "08034",
    "nombre_inegi": "",
    "minx": "-107.99",
    "miny": "29.4336",
    "maxx": "-107.396",
    "maxy": "30.0092",
    "lat": "29.721388816833496",
    "lng": "-107.69277572631836"
  },
  {
    "id": "296",
    "clave_entidad": "8",
    "nombre_entidad": "Chihuahua",
    "clave_municipio": "35",
    "nombre_municipio": "Janos",
    "clave_inegi": "08035",
    "nombre_inegi": "",
    "minx": "-108.886",
    "miny": "30.1897",
    "maxx": "-107.971",
    "maxy": "31.3317",
    "lat": "30.760694503784176",
    "lng": "-108.42847442626953"
  },
  {
    "id": "297",
    "clave_entidad": "8",
    "nombre_entidad": "Chihuahua",
    "clave_municipio": "36",
    "nombre_municipio": "Jimenez",
    "clave_inegi": "08036",
    "nombre_inegi": "",
    "minx": "-105.022",
    "miny": "26.47",
    "maxx": "-103.777",
    "maxy": "27.5742",
    "lat": "27.022083282470703",
    "lng": "-104.39958572387695"
  },
  {
    "id": "298",
    "clave_entidad": "8",
    "nombre_entidad": "Chihuahua",
    "clave_municipio": "37",
    "nombre_municipio": "Juarez",
    "clave_inegi": "08037",
    "nombre_inegi": "",
    "minx": "-106.889",
    "miny": "31.1431",
    "maxx": "-106.199",
    "maxy": "31.7714",
    "lat": "31.45722198486328",
    "lng": "-106.54402923583984"
  },
  {
    "id": "299",
    "clave_entidad": "8",
    "nombre_entidad": "Chihuahua",
    "clave_municipio": "38",
    "nombre_municipio": "Julimes",
    "clave_inegi": "08038",
    "nombre_inegi": "",
    "minx": "-105.506",
    "miny": "28.2375",
    "maxx": "-104.651",
    "maxy": "28.7917",
    "lat": "28.51458263397217",
    "lng": "-105.07847213745116"
  },
  {
    "id": "300",
    "clave_entidad": "8",
    "nombre_entidad": "Chihuahua",
    "clave_municipio": "39",
    "nombre_municipio": "Lopez",
    "clave_inegi": "08039",
    "nombre_inegi": "",
    "minx": "-105.231",
    "miny": "26.6997",
    "maxx": "-104.793",
    "maxy": "27.1678",
    "lat": "26.93375015258789",
    "lng": "-105.01208496093749"
  },
  {
    "id": "301",
    "clave_entidad": "8",
    "nombre_entidad": "Chihuahua",
    "clave_municipio": "40",
    "nombre_municipio": "Madera",
    "clave_inegi": "08040",
    "nombre_inegi": "",
    "minx": "-108.734",
    "miny": "28.7333",
    "maxx": "-107.889",
    "maxy": "29.9989",
    "lat": "29.36611080169678",
    "lng": "-108.31152725219727"
  },
  {
    "id": "302",
    "clave_entidad": "8",
    "nombre_entidad": "Chihuahua",
    "clave_municipio": "41",
    "nombre_municipio": "Maguarichi",
    "clave_inegi": "08041",
    "nombre_inegi": "",
    "minx": "-108.104",
    "miny": "27.6108",
    "maxx": "-107.844",
    "maxy": "28.0331",
    "lat": "27.821945190429688",
    "lng": "-107.97416687011719"
  },
  {
    "id": "303",
    "clave_entidad": "8",
    "nombre_entidad": "Chihuahua",
    "clave_municipio": "42",
    "nombre_municipio": "Manuel Benavides",
    "clave_inegi": "08042",
    "nombre_inegi": "",
    "minx": "-104.253",
    "miny": "28.5828",
    "maxx": "-103.399",
    "maxy": "29.2725",
    "lat": "28.927638053894043",
    "lng": "-103.82625198364258"
  },
  {
    "id": "304",
    "clave_entidad": "8",
    "nombre_entidad": "Chihuahua",
    "clave_municipio": "43",
    "nombre_municipio": "Matachi",
    "clave_inegi": "08043",
    "nombre_inegi": "",
    "minx": "-107.853",
    "miny": "28.7106",
    "maxx": "-107.554",
    "maxy": "28.9672",
    "lat": "28.838889122009277",
    "lng": "-107.70333099365236"
  },
  {
    "id": "305",
    "clave_entidad": "8",
    "nombre_entidad": "Chihuahua",
    "clave_municipio": "44",
    "nombre_municipio": "Matamoros",
    "clave_inegi": "08044",
    "nombre_inegi": "",
    "minx": "-105.76",
    "miny": "26.5319",
    "maxx": "-105.352",
    "maxy": "26.8758",
    "lat": "26.703888893127438",
    "lng": "-105.55597305297852"
  },
  {
    "id": "306",
    "clave_entidad": "8",
    "nombre_entidad": "Chihuahua",
    "clave_municipio": "45",
    "nombre_municipio": "Meoqui",
    "clave_inegi": "08045",
    "nombre_inegi": "",
    "minx": "-105.649",
    "miny": "28.2369",
    "maxx": "-105.323",
    "maxy": "28.4786",
    "lat": "28.35777759552002",
    "lng": "-105.4862518310547"
  },
  {
    "id": "307",
    "clave_entidad": "8",
    "nombre_entidad": "Chihuahua",
    "clave_municipio": "46",
    "nombre_municipio": "Morelos",
    "clave_inegi": "08046",
    "nombre_inegi": "",
    "minx": "-108.008",
    "miny": "26.3092",
    "maxx": "-107.381",
    "maxy": "26.8114",
    "lat": "26.560276985168457",
    "lng": "-107.69444274902345"
  },
  {
    "id": "308",
    "clave_entidad": "8",
    "nombre_entidad": "Chihuahua",
    "clave_municipio": "47",
    "nombre_municipio": "Moris",
    "clave_inegi": "08047",
    "nombre_inegi": "",
    "minx": "-109.066",
    "miny": "27.9722",
    "maxx": "-108.447",
    "maxy": "28.3531",
    "lat": "28.162638664245605",
    "lng": "-108.75652694702147"
  },
  {
    "id": "309",
    "clave_entidad": "8",
    "nombre_entidad": "Chihuahua",
    "clave_municipio": "48",
    "nombre_municipio": "Namiquipa",
    "clave_inegi": "08048",
    "nombre_inegi": "",
    "minx": "-107.596",
    "miny": "28.8267",
    "maxx": "-106.594",
    "maxy": "29.5369",
    "lat": "29.18180561065674",
    "lng": "-107.09527587890625"
  },
  {
    "id": "310",
    "clave_entidad": "8",
    "nombre_entidad": "Chihuahua",
    "clave_municipio": "49",
    "nombre_municipio": "Nonoava",
    "clave_inegi": "08049",
    "nombre_inegi": "",
    "minx": "-106.939",
    "miny": "27.2067",
    "maxx": "-106.493",
    "maxy": "27.6883",
    "lat": "27.447500228881832",
    "lng": "-106.71583557128906"
  },
  {
    "id": "311",
    "clave_entidad": "8",
    "nombre_entidad": "Chihuahua",
    "clave_municipio": "50",
    "nombre_municipio": "Nuevo Casas Grandes",
    "clave_inegi": "08050",
    "nombre_inegi": "",
    "minx": "-107.981",
    "miny": "30.1617",
    "maxx": "-107.418",
    "maxy": "30.7992",
    "lat": "30.480416297912598",
    "lng": "-107.69930648803711"
  },
  {
    "id": "312",
    "clave_entidad": "8",
    "nombre_entidad": "Chihuahua",
    "clave_municipio": "51",
    "nombre_municipio": "Ocampo",
    "clave_inegi": "08051",
    "nombre_inegi": "",
    "minx": "-108.486",
    "miny": "27.9739",
    "maxx": "-107.818",
    "maxy": "28.3506",
    "lat": "28.162221908569332",
    "lng": "-108.1522216796875"
  },
  {
    "id": "313",
    "clave_entidad": "8",
    "nombre_entidad": "Chihuahua",
    "clave_municipio": "52",
    "nombre_municipio": "Ojinaga",
    "clave_inegi": "08052",
    "nombre_inegi": "",
    "minx": "-104.876",
    "miny": "28.6239",
    "maxx": "-104.124",
    "maxy": "30.4683",
    "lat": "29.54611110687256",
    "lng": "-104.50027847290038"
  },
  {
    "id": "314",
    "clave_entidad": "8",
    "nombre_entidad": "Chihuahua",
    "clave_municipio": "53",
    "nombre_municipio": "Praxedis G. Guerrero",
    "clave_inegi": "08053",
    "nombre_inegi": "",
    "minx": "-106.024",
    "miny": "31.1261",
    "maxx": "-105.817",
    "maxy": "31.3794",
    "lat": "31.252778053283688",
    "lng": "-105.92041778564453"
  },
  {
    "id": "315",
    "clave_entidad": "8",
    "nombre_entidad": "Chihuahua",
    "clave_municipio": "54",
    "nombre_municipio": "Riva Palacio",
    "clave_inegi": "08054",
    "nombre_inegi": "",
    "minx": "-106.883",
    "miny": "28.4492",
    "maxx": "-106.304",
    "maxy": "29.2656",
    "lat": "28.857361793518066",
    "lng": "-106.59361267089844"
  },
  {
    "id": "316",
    "clave_entidad": "8",
    "nombre_entidad": "Chihuahua",
    "clave_municipio": "55",
    "nombre_municipio": "Rosales",
    "clave_inegi": "08055",
    "nombre_inegi": "",
    "minx": "-105.974",
    "miny": "27.9094",
    "maxx": "-105.494",
    "maxy": "28.5792",
    "lat": "28.24430561065674",
    "lng": "-105.73430633544922"
  },
  {
    "id": "317",
    "clave_entidad": "8",
    "nombre_entidad": "Chihuahua",
    "clave_municipio": "56",
    "nombre_municipio": "Rosario",
    "clave_inegi": "08056",
    "nombre_inegi": "",
    "minx": "-106.506",
    "miny": "27.1364",
    "maxx": "-106.138",
    "maxy": "27.425",
    "lat": "27.28069400787353",
    "lng": "-106.32208251953126"
  },
  {
    "id": "318",
    "clave_entidad": "8",
    "nombre_entidad": "Chihuahua",
    "clave_municipio": "57",
    "nombre_municipio": "San Francisco de Borja",
    "clave_inegi": "08057",
    "nombre_inegi": "",
    "minx": "-106.909",
    "miny": "27.6822",
    "maxx": "-106.566",
    "maxy": "28.0725",
    "lat": "27.877361297607422",
    "lng": "-106.73749923706056"
  },
  {
    "id": "319",
    "clave_entidad": "8",
    "nombre_entidad": "Chihuahua",
    "clave_municipio": "58",
    "nombre_municipio": "San Francisco de Conchos",
    "clave_inegi": "08058",
    "nombre_inegi": "",
    "minx": "-105.556",
    "miny": "27.3875",
    "maxx": "-105.282",
    "maxy": "27.7319",
    "lat": "27.55972290039062",
    "lng": "-105.41888809204102"
  },
  {
    "id": "320",
    "clave_entidad": "8",
    "nombre_entidad": "Chihuahua",
    "clave_municipio": "59",
    "nombre_municipio": "San Francisco del Oro",
    "clave_inegi": "08059",
    "nombre_inegi": "",
    "minx": "-106.151",
    "miny": "26.7694",
    "maxx": "-105.787",
    "maxy": "26.9978",
    "lat": "26.883610725402832",
    "lng": "-105.96944427490233"
  },
  {
    "id": "321",
    "clave_entidad": "8",
    "nombre_entidad": "Chihuahua",
    "clave_municipio": "60",
    "nombre_municipio": "Santa Barbara",
    "clave_inegi": "08060",
    "nombre_inegi": "",
    "minx": "-105.872",
    "miny": "26.7244",
    "maxx": "-105.669",
    "maxy": "26.9192",
    "lat": "26.821805953979496",
    "lng": "-105.77055358886719"
  },
  {
    "id": "322",
    "clave_entidad": "8",
    "nombre_entidad": "Chihuahua",
    "clave_municipio": "61",
    "nombre_municipio": "Satevo",
    "clave_inegi": "08061",
    "nombre_inegi": "",
    "minx": "-106.613",
    "miny": "27.3942",
    "maxx": "-105.772",
    "maxy": "28.1069",
    "lat": "27.750555992126465",
    "lng": "-106.1926383972168"
  },